[{"city": "'s Gravendeel", "postalCode": "3295 BD", "street": "Kerkstraat", "street2": "37", "street3": "", "addressName": "Jumbo 's Gravendeel Gravendeel Centrum", "uuid": "EOgKYx4XFiQAAAFJa_YYZ4At", "complexNumber": "33249", "showWarningMessage": true, "todayOpen": "08:00", "locationType": "SupermarktPuP", "collectionPoint": true, "sapStoreID": "3605", "todayClose": "20:00", "location": {"type": "Point", "coordinates": [4.615551, 51.778461]}}, {"city": "'s-Heerenberg", "postalCode": "7041 JE", "street": "Stadsplein", "street2": "71", "street3": "", "addressName": "Jumbo 's-Heerenberg Stadsplein", "uuid": "7ewKYx4Xqp0AAAFIHigYwKrH", "complexNumber": "30170", "showWarningMessage": true, "todayOpen": "08:00", "locationType": "Supermarkt", "sapStoreID": "4670", "todayClose": "21:00", "location": {"type": "Point", "coordinates": [6.245829, 51.874272]}}, {"city": "Aalsmeer", "postalCode": "1431 HN", "street": "Ophelialaan", "street2": "124", "street3": "", "addressName": "Jumbo Aalsmeer Ophelialaan", "uuid": "gssKYx4XJwoAAAFbn.BMqPTb", "complexNumber": "33010", "showWarningMessage": true, "todayOpen": "08:00", "locationType": "SupermarktPuP", "collectionPoint": true, "sapStoreID": "3178", "todayClose": "22:00", "location": {"type": "Point", "coordinates": [4.762433, 52.264417]}}, {"city": "Aalst", "postalCode": "5582 CL", "street": "Hortensialaan", "street2": "2", "street3": "", "addressName": "Jumbo Aalst Paul en Marjon Houben", "uuid": "Tk0KYx4XZ3YAAAFc_DRE1DKo", "complexNumber": "33011", "showWarningMessage": true, "todayOpen": "08:00", "locationType": "SupermarktPuP", "collectionPoint": true, "sapStoreID": "3754", "todayClose": "20:00", "location": {"type": "Point", "coordinates": [5.469597, 51.399843]}}, {"city": "Aalten", "postalCode": "7122 WJ", "street": "Admiraal de Ruyterstraat", "street2": "10", "street3": "", "addressName": "Jumbo Aalten Leussink", "uuid": "0XcKYx4XNRQAAAFI3LgYwKxK", "complexNumber": "30519", "showWarningMessage": true, "todayOpen": "08:00", "locationType": "SupermarktPuP", "collectionPoint": true, "sapStoreID": "6487", "todayClose": "21:00", "location": {"type": "Point", "coordinates": [6.576066, 51.923993]}}, {"city": "Aardenburg", "postalCode": "4527 BK", "street": "Peurssensstraat", "street2": "21", "street3": "", "addressName": "Jumbo Aardenburg Ingels", "uuid": "HocKYx4XP6wAAAFM3VBYQRZw", "complexNumber": "33012", "showWarningMessage": true, "todayOpen": "08:00", "locationType": "SupermarktPuP", "collectionPoint": true, "sapStoreID": "3726", "todayClose": "19:00", "location": {"type": "Point", "coordinates": [3.444601, 51.275006]}}, {"city": "Alkmaar", "postalCode": "1824 XT", "street": "Muiderwaard", "street2": "416", "street3": "", "addressName": "Jumbo Alkmaar Duijvelshoff", "uuid": "V7cKYx4X0QUAAAFMTmYM5CXj", "complexNumber": "33282", "showWarningMessage": true, "todayOpen": "Gesloten", "locationType": "Supermarkt", "sapStoreID": "3574", "todayClose": "Gesloten", "location": {"type": "Point", "coordinates": [4.749492, 52.645601]}}, {"city": "Alkmaar", "postalCode": "1827 LB", "street": "J. Naberstraat", "street2": "49-51", "street3": "", "addressName": "Jumbo Alkmaar J. Naberstraat", "uuid": "lFoKYx4X5PcAAAFIjrwYwKxJ", "complexNumber": "33504", "showWarningMessage": true, "todayOpen": "08:00", "locationType": "SupermarktPuP", "collectionPoint": true, "sapStoreID": "3047", "todayClose": "22:00", "location": {"type": "Point", "coordinates": [4.766146, 52.665822]}}, {"city": "Alkmaar", "postalCode": "1811 KH", "street": "Paardenmarkt", "street2": "2", "street3": "", "addressName": "Jumbo Alkmaar Paardenmarkt", "uuid": "HLkKYx4XyjkAAAFICUgYwKxK", "complexNumber": "30043", "showWarningMessage": true, "todayOpen": "08:00", "locationType": "Supermarkt", "sapStoreID": "4688", "todayClose": "21:00", "location": {"type": "Point", "coordinates": [4.745031, 52.63374]}}, {"city": "Alkmaar", "postalCode": "1824 HX", "street": "Winkelwaard", "street2": "486", "street3": "", "addressName": "Jumbo Alkmaar Winkelwaard", "uuid": "kiAKYx4XTw4AAAFKH9h0LVDS", "complexNumber": "33508", "showWarningMessage": true, "todayOpen": "08:00", "locationType": "SupermarktPuP", "collectionPoint": true, "sapStoreID": "3617", "todayClose": "22:00", "location": {"type": "Point", "coordinates": [4.759373, 52.645642]}}, {"city": "Almelo", "postalCode": "7601 BD", "street": "Bornerbroeksestraat", "street2": "79", "street3": "", "addressName": "Jumbo Almelo Bornerbroeksestraat", "uuid": "ApoKYx4XqrYAAAFT48gG6uPF", "complexNumber": "32254", "showWarningMessage": true, "todayOpen": "08:00", "locationType": "SupermarktPuP", "collectionPoint": true, "sapStoreID": "4946", "todayClose": "21:00", "location": {"type": "Point", "coordinates": [6.660543, 52.349813]}}, {"city": "Almere", "postalCode": "1316 HC", "street": "Geinplein", "street2": "32-37", "street3": "", "addressName": "Jumbo Almere Waterwijk Geinplein", "uuid": "gi8KYx4XGtUAAAFIQlIYwKxK", "complexNumber": "32004", "showWarningMessage": true, "todayOpen": "08:00", "locationType": "SupermarktPuP", "collectionPoint": true, "sapStoreID": "4817", "todayClose": "22:00", "location": {"type": "Point", "coordinates": [5.22411, 52.384906]}}, {"city": "Almere-Buiten", "postalCode": "1334 KB", "street": "Detroitpad", "street2": "1", "street3": "", "addressName": "Jumbo Almere-Buiten Detroitpad", "uuid": "MKUKYx4XUdYAAAFJpwcYZ4CR", "complexNumber": "33014", "showWarningMessage": true, "todayOpen": "08:00", "locationType": "SupermarktPuP", "collectionPoint": true, "sapStoreID": "3094", "todayClose": "22:00", "location": {"type": "Point", "coordinates": [5.274883, 52.395474]}}, {"city": "Almere-Haven", "postalCode": "1356 AZ", "street": "Jaagmeent", "street2": "250", "street3": "", "addressName": "Jumbo Almere-Haven Jaagmeent", "uuid": "A4UKYx4XavkAAAFI3soYwKxJ", "complexNumber": "32225", "showWarningMessage": true, "todayOpen": "08:00", "locationType": "SupermarktPuP", "collectionPoint": true, "sapStoreID": "3098", "todayClose": "22:00", "location": {"type": "Point", "coordinates": [5.231883, 52.336693]}}, {"city": "Alphen aan den Rijn", "postalCode": "2402 DK", "street": "Herenhof", "street2": "183", "street3": "", "addressName": "Jumbo Alphen aan den Rijn Ten Brink Food", "uuid": "iWwKYx4Xu7gAAAFNmhtasGod", "complexNumber": "33238", "showWarningMessage": true, "todayOpen": "08:00", "locationType": "SupermarktPuP", "collectionPoint": true, "sapStoreID": "3546", "todayClose": "20:00", "location": {"type": "Point", "coordinates": [4.661277, 52.150632]}}, {"city": "Amerongen", "postalCode": "3958 XH", "street": "Koenestraat", "street2": "36", "street3": "", "addressName": "Jumbo Amerongen Koenestraat", "uuid": "xf0KYx4XpRcAAAFIL5EYwKxK", "complexNumber": "30489", "showWarningMessage": true, "todayOpen": "08:00", "locationType": "Supermarkt", "sapStoreID": "6366", "todayClose": "21:00", "location": {"type": "Point", "coordinates": [5.461122, 52.002437]}}, {"city": "Amersfoort", "postalCode": "3823 ET", "street": "Emiclaerhof", "street2": "248", "street3": "", "addressName": "Jumbo Amersfoort Den Blanken Emiclaer", "uuid": "iiIKYx4XwVgAAAFMzechgUnv", "complexNumber": "33018", "showWarningMessage": true, "todayOpen": "07:00", "locationType": "SupermarktPuP", "collectionPoint": true, "sapStoreID": "3540", "todayClose": "22:00", "location": {"type": "Point", "coordinates": [5.398059, 52.18599]}}, {"city": "Amersfoort", "postalCode": "3824 EE", "street": "Zonnewijzer", "street2": "21", "street3": "", "addressName": "Jumbo Amersfoort Den Blanken Nieuwland", "uuid": "3kIKYx4XYocAAAFNDH47frdc", "complexNumber": "33021", "showWarningMessage": true, "todayOpen": "07:00", "locationType": "SupermarktPuP", "collectionPoint": true, "sapStoreID": "3426", "todayClose": "22:00", "location": {"type": "Point", "coordinates": [5.37659, 52.199279]}}, {"city": "Amersfoort", "postalCode": "3817 KD", "street": "Leusderweg", "street2": "152", "street3": "", "addressName": "Jumbo Amersfoort Leusderweg.", "uuid": "xSgKYx4XXk0AAAFTOqsG6pvj", "complexNumber": "32257", "showWarningMessage": true, "todayOpen": "08:00", "locationType": "SupermarktPuP", "collectionPoint": true, "sapStoreID": "4730", "todayClose": "21:00", "location": {"type": "Point", "coordinates": [5.381369, 52.143866]}}, {"city": "Amersfoort", "postalCode": "3814 BR", "street": "Neptunusplein", "street2": "66A", "street3": "", "addressName": "Jumbo Amersfoort Neptunusplein", "uuid": "uM0KYx4X0l0AAAFIDEEYwKrH", "complexNumber": "32005", "showWarningMessage": true, "todayOpen": "08:00", "locationType": "Supermarkt", "sapStoreID": "4830", "todayClose": "20:00", "location": {"type": "Point", "coordinates": [5.399515, 52.162897]}}, {"city": "Amersfoort", "postalCode": "3818 LA", "street": "Berkenweg", "street2": "11a", "street3": "", "addressName": "Jumbo Amersfoort PUP Medewerkers FrieslandCampina", "uuid": ".SEKYx4X8rIAAAFSDBo6Nx7N", "complexNumber": "35008", "showWarningMessage": true, "todayOpen": "Gesloten", "locationType": "PuP", "collectionPoint": true, "sapStoreID": "8856", "todayClose": "Gesloten", "location": {"type": "Point", "coordinates": [5.377845, 52.151843]}}, {"city": "Amersfoort", "postalCode": "3813 PR", "street": "Pieter Stastokerf", "street2": "6-8", "street3": "", "addressName": "Jumbo Amersfoort Pieter Stastokerf", "uuid": "9_wKYx4XGYkAAAFILMQYwKxJ", "complexNumber": "33019", "showWarningMessage": true, "todayOpen": "07:00", "locationType": "Supermarkt", "sapStoreID": "3064", "todayClose": "22:00", "location": {"type": "Point", "coordinates": [5.389766, 52.173049]}}, {"city": "Amersfoort", "postalCode": "3825 LS", "street": "Paulinapolder", "street2": "1", "street3": "", "addressName": "Jumbo Amersfoort Vathorst", "uuid": "qAIKYx4Xn9wAAAFIqgQYwKxK", "complexNumber": "33256", "showWarningMessage": true, "todayOpen": "08:00", "locationType": "SupermarktPuP", "collectionPoint": true, "sapStoreID": "3534", "todayClose": "22:00", "location": {"type": "Point", "coordinates": [5.430602, 52.193992]}}, {"city": "Amersfoort", "postalCode": "3815 GK", "street": "Wiekslag", "street2": "261", "street3": "", "addressName": "Jumbo Amersfoort Wiekslag", "uuid": "zT0KYx4X_ZsAAAFI39EYwKxJ", "complexNumber": "33020", "showWarningMessage": true, "todayOpen": "08:00", "locationType": "Supermarkt", "sapStoreID": "3119", "todayClose": "20:00", "location": {"type": "Point", "coordinates": [5.409, 52.16654]}}, {"city": "Amstelveen", "postalCode": "1186 EZ", "street": "Groenhof", "street2": "165", "street3": "", "addressName": "Jumbo Amstelveen Groenhof", "uuid": "yTEKYx4Xq8IAAAFIg1QYwKxK", "complexNumber": "32006", "showWarningMessage": true, "todayOpen": "08:00", "locationType": "SupermarktPuP", "collectionPoint": true, "sapStoreID": "4822", "todayClose": "21:00", "location": {"type": "Point", "coordinates": [4.869239, 52.289047]}}, {"city": "Amstelveen", "postalCode": "1181 GV", "street": "Rembrandtweg", "street2": "617-635", "street3": "", "addressName": "Jumbo Amstelveen Veenbrink", "uuid": "OlQKYx4Xd4IAAAFYVp9bFbLM", "complexNumber": "32262", "showWarningMessage": true, "todayOpen": "08:00", "locationType": "SupermarktPuP", "collectionPoint": true, "sapStoreID": "7069", "todayClose": "21:00", "location": {"type": "Point", "coordinates": [4.86268, 52.314032]}}, {"city": "Amsterdam", "postalCode": "1058 AH", "street": "Baarsjesweg", "street2": "303-305", "street3": "", "addressName": "Jumbo Amsterdam Baarsjesweg", "uuid": "UJYKYx4X8vEAAAFM1eJYQQHW", "complexNumber": "32207", "showWarningMessage": true, "todayOpen": "08:00", "locationType": "Supermarkt", "sapStoreID": "4932", "todayClose": "21:00", "location": {"type": "Point", "coordinates": [4.855152, 52.358817]}}, {"city": "Amsterdam", "postalCode": "1025 EW", "street": "Buikslotermeerplein", "street2": "52", "street3": "", "addressName": "Jumbo Amsterdam Buikslotermeerplein", "uuid": "vCoKYx4X08YAAAFIiL8YwKxJ", "complexNumber": "33510", "showWarningMessage": true, "todayOpen": "08:00", "locationType": "SupermarktPuP", "collectionPoint": true, "sapStoreID": "3054", "todayClose": "21:00", "location": {"type": "Point", "coordinates": [4.935776, 52.399066]}}, {"city": "Amsterdam", "postalCode": "1081 AC", "street": "Buitenveldertselaan", "street2": "184", "street3": "", "addressName": "Jumbo Amsterdam Buitenveldertselaan", "uuid": "f.AKYx4XC_IAAAFIvaoYwKxK", "complexNumber": "30196", "showWarningMessage": true, "todayOpen": "08:00", "locationType": "SupermarktPuP", "collectionPoint": true, "sapStoreID": "6448", "todayClose": "22:00", "location": {"type": "Point", "coordinates": [4.868105, 52.32455]}}, {"city": "Amsterdam", "postalCode": "1060 TZ", "street": "Pieter Calandlaan", "street2": "808", "street3": "", "addressName": "Jumbo Amsterdam De Aker", "uuid": "Y6IKYx4XkTsAAAFITxkYwKxK", "complexNumber": "33024", "showWarningMessage": true, "todayOpen": "07:00", "locationType": "Supermarkt", "sapStoreID": "3668", "todayClose": "22:00", "location": {"type": "Point", "coordinates": [4.786455, 52.349779]}}, {"city": "Amsterdam", "postalCode": "1021 KP", "street": "Gedempt Hamerkanaal", "street2": "223", "street3": "", "addressName": "Jumbo Amsterdam Foodmarkt Amsterdam", "uuid": "5KsKYx4XUj8AAAFJ7S5Gp2Rc", "complexNumber": "32205", "showWarningMessage": true, "todayOpen": "08:00", "locationType": "Supermarkt", "sapStoreID": "4703", "todayClose": "21:00", "location": {"type": "Point", "coordinates": [4.919767, 52.383263]}}, {"city": "Amsterdam", "postalCode": "1075 PA", "street": "H. Jacobszstraat", "street2": "9", "street3": "", "addressName": "Jumbo Amsterdam H. Jacobszstraat", "uuid": "CiYKYx4XHvkAAAFIDkkYwKxK", "complexNumber": "30769", "showWarningMessage": true, "todayOpen": "08:00", "locationType": "Supermarkt", "sapStoreID": "4690", "todayClose": "21:00", "location": {"type": "Point", "coordinates": [4.860463, 52.351722]}}, {"city": "Amsterdam", "postalCode": "1019 BW", "street": "Oostelijke Handelskade", "street2": "1005", "street3": "", "addressName": "Jumbo Amsterdam Oostelijke Handelskade", "uuid": "bBkKYx4XaBwAAAFNDfk7fpNP", "complexNumber": "33023", "showWarningMessage": true, "todayOpen": "08:00", "locationType": "SupermarktPuP", "collectionPoint": true, "sapStoreID": "3427", "todayClose": "22:00", "location": {"type": "Point", "coordinates": [4.935351, 52.374447]}}, {"city": "Amsterdam", "postalCode": "1063 KR", "street": "Plein '40-'45", "street2": "12", "street3": "", "addressName": "Jumbo Amsterdam Plein '40-'45", "uuid": "Gb8KYx4XfJMAAAFU9ZYHUsZd", "complexNumber": "32251", "showWarningMessage": true, "todayOpen": "08:00", "locationType": "Supermarkt", "sapStoreID": "4721", "todayClose": "22:00", "location": {"type": "Point", "coordinates": [4.821771, 52.380655]}}, {"city": "Amsterdam", "postalCode": "1107 ET", "street": "Reigersbos", "street2": "196", "street3": "", "addressName": "Jumbo Amsterdam Reigersbos", "uuid": "wiQKYx4Xs8AAAAFJP4IFS1eI", "complexNumber": "33025", "showWarningMessage": true, "todayOpen": "08:00", "locationType": "Supermarkt", "sapStoreID": "3428", "todayClose": "22:00", "location": {"type": "Point", "coordinates": [4.976122, 52.294533]}}, {"city": "Amsterdam", "postalCode": "1013 TH", "street": "Spaarndammerstraat", "street2": "544", "street3": "", "addressName": "Jumbo Amsterdam Spaarndammerstraat", "uuid": "qisKYx4X6wwAAAFY.DNSOmWN", "complexNumber": "32252", "showWarningMessage": true, "todayOpen": "08:00", "locationType": "Supermarkt", "sapStoreID": "4726", "todayClose": "22:00", "location": {"type": "Point", "coordinates": [4.879655, 52.389402]}}, {"city": "Amsterdam", "postalCode": "1073 AV", "street": "Stadhouderskade", "street2": "93", "street3": "", "addressName": "Jumbo Amsterdam Stadhouderskade", "uuid": "dhkKYx4XS0UAAAFcnMNlwJ7N", "complexNumber": "32266", "showWarningMessage": true, "todayOpen": "08:00", "locationType": "Supermarkt", "sapStoreID": "4738", "todayClose": "22:00", "location": {"type": "Point", "coordinates": [4.895801, 52.357579]}}, {"city": "Amsterdam", "postalCode": "1083 CD", "street": "Kastelenstraat", "street2": "70", "street3": "", "addressName": "Jumbo Amsterdam Velu", "uuid": "w8kKYx4XMdgAAAFIIQIYwKxK", "complexNumber": "33007", "showWarningMessage": true, "todayOpen": "08:00", "locationType": "Supermarkt", "sapStoreID": "3520", "todayClose": "22:00", "location": {"type": "Point", "coordinates": [4.88315, 52.326242]}}, {"city": "Amsterdam", "postalCode": "1015 MN", "street": "Westerstraat", "street2": "98-102", "street3": "", "addressName": "Jumbo Amsterdam Westerstraat", "uuid": "R74KYx4XucoAAAFIqY8YwKxK", "complexNumber": "30644", "showWarningMessage": true, "todayOpen": "08:00", "locationType": "SupermarktPuP", "collectionPoint": true, "sapStoreID": "6364", "todayClose": "21:00", "location": {"type": "Point", "coordinates": [4.883832, 52.37867]}}, {"city": "Amsterdam", "postalCode": "1106 MC", "street": "Wisseloord", "street2": "126", "street3": "", "addressName": "Jumbo Amsterdam Wisseloord", "uuid": "MZwKYx4XUSQAAAFIEuQYwKxJ", "complexNumber": "32226", "showWarningMessage": true, "todayOpen": "08:00", "locationType": "Supermarkt", "sapStoreID": "3429", "todayClose": "22:00", "location": {"type": "Point", "coordinates": [4.987549, 52.296945]}}, {"city": "Anna Paulowna", "postalCode": "1761 BV", "street": "Molengang", "street2": "10-14", "street3": "", "addressName": "Jumbo Anna Paulowna Molengang", "uuid": "ROcKYx4X1lQAAAFIa78YwKxJ", "complexNumber": "33027", "showWarningMessage": true, "todayOpen": "08:00", "locationType": "SupermarktPuP", "collectionPoint": true, "sapStoreID": "3048", "todayClose": "20:00", "location": {"type": "Point", "coordinates": [4.83292, 52.86143]}}, {"city": "Apeldoorn", "postalCode": "7322 NB", "street": "Korianderplein", "street2": "61", "street3": "", "addressName": "Jumbo Apeldoorn Jumbo Wiegmans Apeldoorn", "uuid": "U0wKYx4X6f4AAAFL_AVYbVfl", "complexNumber": "33511", "showWarningMessage": true, "todayOpen": "07:00", "locationType": "SupermarktPuP", "collectionPoint": true, "sapStoreID": "3642", "todayClose": "22:00", "location": {"type": "Point", "coordinates": [5.992215, 52.22117]}}, {"city": "Apeldoorn", "postalCode": "7333 DJ", "street": "Schubertplein", "street2": "1-5", "street3": "", "addressName": "Jumbo Apeldoorn Van de Bunt", "uuid": "j8gKYx4X_HYAAAFIlgQYwKxK", "complexNumber": "33028", "showWarningMessage": true, "todayOpen": "07:00", "locationType": "SupermarktPuP", "collectionPoint": true, "sapStoreID": "3535", "todayClose": "20:00", "location": {"type": "Point", "coordinates": [5.966148, 52.190328]}}, {"city": "Appingedam", "postalCode": "9902 CX", "street": "Harddraversplein", "street2": "1-5", "street3": "", "addressName": "Jumbo Appingedam Harddraversplein", "uuid": "PqQKYx4X00kAAAFID.QYwKxJ", "complexNumber": "33512", "showWarningMessage": true, "todayOpen": "08:00", "locationType": "SupermarktPuP", "collectionPoint": true, "sapStoreID": "3430", "todayClose": "21:00", "location": {"type": "Point", "coordinates": [6.864727, 53.315822]}}, {"city": "Arnhem", "postalCode": "6814 GB", "street": "Amsterdamseweg", "street2": "33", "street3": "", "addressName": "Jumbo Arnhem Amsterdamseweg", "uuid": "v2IKYx4XCacAAAFIXUQYwKxK", "complexNumber": "30469", "showWarningMessage": true, "todayOpen": "08:00", "locationType": "SupermarktPuP", "collectionPoint": true, "sapStoreID": "4680", "todayClose": "21:00", "location": {"type": "Point", "coordinates": [5.893909, 51.988239]}}, {"city": "Arnhem", "postalCode": "6827 BH", "street": "Dr. C. Lelyweg", "street2": "9-13", "street3": "", "addressName": "Jumbo Arnhem De Lely", "uuid": "jYYKYx4XEnAAAAFITVkYwKxK", "complexNumber": "32007", "showWarningMessage": true, "todayOpen": "08:00", "locationType": "SupermarktPuP", "collectionPoint": true, "sapStoreID": "4831", "todayClose": "20:00", "location": {"type": "Point", "coordinates": [5.933527, 51.973083]}}, {"city": "Arnhem", "postalCode": "6843 JA", "street": "Elderveldplein", "street2": "12", "street3": "", "addressName": "Jumbo Arnhem Elderveldplein", "uuid": "Y7EKYx4XyPwAAAFIbqUYwKxK", "complexNumber": "30354", "showWarningMessage": true, "todayOpen": "08:00", "locationType": "SupermarktPuP", "collectionPoint": true, "sapStoreID": "6434", "todayClose": "20:00", "location": {"type": "Point", "coordinates": [5.859301, 51.961061]}}, {"city": "Arnhem", "postalCode": "6845 CZ", "street": "Oostburgwal", "street2": "12", "street3": "", "addressName": "Jumbo Arnhem Oostburgwal", "uuid": "BncKYx4XSPoAAAFIxc8YwKrG", "complexNumber": "33503", "showWarningMessage": true, "todayOpen": "08:00", "locationType": "SupermarktPuP", "collectionPoint": true, "sapStoreID": "3402", "todayClose": "21:00", "location": {"type": "Point", "coordinates": [5.867014, 51.94852]}}, {"city": "Arnhem", "postalCode": "6824 KT", "street": "Rosendaalseweg", "street2": "696", "street3": "", "addressName": "Jumbo Arnhem Rosendaalseweg", "uuid": "odkKYx4XqdsAAAFIKBEYwKxK", "complexNumber": "33513", "showWarningMessage": true, "todayOpen": "08:00", "locationType": "SupermarktPuP", "collectionPoint": true, "sapStoreID": "3616", "todayClose": "21:00", "location": {"type": "Point", "coordinates": [5.938591, 51.997751]}}, {"city": "Assen", "postalCode": "9401 BA", "street": "Kroonwerk", "street2": "19", "street3": "", "addressName": "Jumbo Assen Citadel", "uuid": "xTIKYx4XmOUAAAFIYYAYwKxK", "complexNumber": "32159", "showWarningMessage": true, "todayOpen": "08:00", "locationType": "Supermarkt", "sapStoreID": "4945", "todayClose": "21:00", "location": {"type": "Point", "coordinates": [6.566601, 52.996836]}}, {"city": "Assen", "postalCode": "9403 LS", "street": "Kleuvenstee", "street2": "106", "street3": "", "addressName": "Jumbo Assen Kleuvenstee", "uuid": "n_MKYx4XHjEAAAFIEkYYwKxK", "complexNumber": "30064", "showWarningMessage": true, "todayOpen": "08:00", "locationType": "SupermarktPuP", "collectionPoint": true, "sapStoreID": "4682", "todayClose": "21:00", "location": {"type": "Point", "coordinates": [6.585363, 53.017556]}}, {"city": "Assen", "postalCode": "9401 AL", "street": "Nijlandstraat", "street2": "141", "street3": "", "addressName": "Jumbo Assen Nijlandstraat", "uuid": "YLUKYx4XlpEAAAFIYU4YwKxK", "complexNumber": "32148", "showWarningMessage": true, "todayOpen": "08:00", "locationType": "SupermarktPuP", "collectionPoint": true, "sapStoreID": "4805", "todayClose": "21:00", "location": {"type": "Point", "coordinates": [6.569965, 52.998792]}}, {"city": "Assen", "postalCode": "9406 AJ", "street": "Nobellaan", "street2": "259", "street3": "", "addressName": "Jumbo Assen Nobellaan", "uuid": "sGQKYx4XT5kAAAFNg.lmVAMd", "complexNumber": "33029", "showWarningMessage": true, "todayOpen": "08:00", "locationType": "SupermarktPuP", "collectionPoint": true, "sapStoreID": "3149", "todayClose": "21:00", "location": {"type": "Point", "coordinates": [6.548531, 53.000548]}}, {"city": "Baarle-Nassau", "postalCode": "5111 CA", "street": "St. Annaplein", "street2": "15", "street3": "", "addressName": "Jumbo Baarle-Nassau Bresser St. Annaplein", "uuid": "rHkKYx4XdCMAAAFIzvwYwKxJ", "complexNumber": "33003", "showWarningMessage": true, "todayOpen": "08:00", "locationType": "Supermarkt", "sapStoreID": "3507", "todayClose": "20:00", "location": {"type": "Point", "coordinates": [4.93209, 51.444124]}}, {"city": "Baarn", "postalCode": "3743 BC", "street": "Laanstraat", "street2": "87", "street3": "", "addressName": "Jumbo Baarn Den Blanken", "uuid": ".nIKYx4X0zIAAAFLYtAai3Gk", "complexNumber": "33031", "showWarningMessage": true, "todayOpen": "07:00", "locationType": "SupermarktPuP", "collectionPoint": true, "sapStoreID": "3541", "todayClose": "21:00", "location": {"type": "Point", "coordinates": [5.285692, 52.211878]}}, {"city": "Bakel", "postalCode": "5761 EG", "street": "Auerschootseweg", "street2": "17", "street3": "", "addressName": "Jumbo Bakel Auerschootseweg", "uuid": "O_EKYx4Xz30AAAFQb9Yfuabc", "complexNumber": "33278", "showWarningMessage": true, "todayOpen": "08:00", "locationType": "SupermarktPuP", "collectionPoint": true, "sapStoreID": "3168", "todayClose": "20:00", "location": {"type": "Point", "coordinates": [5.742722, 51.499358]}}, {"city": "Barendrecht", "postalCode": "2993 EH", "street": "van Beuningenhaven", "street2": "4", "street3": "", "addressName": "Jumbo Barendrecht Carnisselande", "uuid": "fPcKYx4XFrYAAAFIulkYwKxK", "complexNumber": "32008", "showWarningMessage": true, "todayOpen": "08:00", "locationType": "SupermarktPuP", "collectionPoint": true, "sapStoreID": "4833", "todayClose": "21:00", "location": {"type": "Point", "coordinates": [4.498515, 51.847071]}}, {"city": "Barendrecht", "postalCode": "2991 EM", "street": "Onderlangs", "street2": "44", "street3": "", "addressName": "Jumbo Barendrecht Onderlangs", "uuid": ".ooKYx4Xh4AAAAFIhiAYwKrH", "complexNumber": "30272", "showWarningMessage": true, "todayOpen": "08:00", "locationType": "Supermarkt", "sapStoreID": "4647", "todayClose": "21:00", "location": {"type": "Point", "coordinates": [4.541214, 51.85389]}}, {"city": "Barneveld", "postalCode": "3772 CK", "street": "Amersfoortsestraat", "street2": "70", "street3": "", "addressName": "Jumbo Barneveld Amersfoortsestraat", "uuid": "F0wKYx4XrlUAAAFI.cEYwKxJ", "complexNumber": "33033", "showWarningMessage": true, "todayOpen": "08:00", "locationType": "SupermarktPuP", "collectionPoint": true, "sapStoreID": "3056", "todayClose": "21:00", "location": {"type": "Point", "coordinates": [5.580403, 52.136588]}}, {"city": "Barneveld", "postalCode": "3771 CB", "street": "Nieuwe Markt", "street2": "5", "street3": "", "addressName": "Jumbo Barneveld Nieuwe Markt", "uuid": "mI0KYx4X8ZoAAAFIb8YYwKxJ", "complexNumber": "33034", "showWarningMessage": true, "todayOpen": "08:00", "locationType": "Supermarkt", "sapStoreID": "3081", "todayClose": "21:00", "location": {"type": "Point", "coordinates": [5.583035, 52.141901]}}, {"city": "Bedum", "postalCode": "9781 AD", "street": "Noordwolderweg", "street2": "7", "street3": "", "addressName": "Jumbo Bedum Noordwolderweg", "uuid": "w1YKYx4XE1IAAAFIS7QYwKxK", "complexNumber": "30070", "showWarningMessage": true, "todayOpen": "08:00", "locationType": "SupermarktPuP", "collectionPoint": true, "sapStoreID": "6479", "todayClose": "21:00", "location": {"type": "Point", "coordinates": [6.594219, 53.299966]}}, {"city": "Beilen", "postalCode": "9411 ZZ", "street": "Ventweg Zuid", "street2": "3", "street3": "", "addressName": "Jumbo Beilen Mulder Ventweg", "uuid": "9bIKYx4X3wgAAAFIRv0YwKxJ", "complexNumber": "33004", "showWarningMessage": true, "todayOpen": "08:00", "locationType": "SupermarktPuP", "collectionPoint": true, "sapStoreID": "3508", "todayClose": "21:00", "location": {"type": "Point", "coordinates": [6.512763, 52.858527]}}, {"city": "Belfeld", "postalCode": "5951 CZ", "street": "Muldersplein", "street2": "10", "street3": "", "addressName": "Jumbo Belfeld Muldersplein", "uuid": "OLAKYx4XYvIAAAFInpQYwKxK", "complexNumber": "31560", "showWarningMessage": true, "todayOpen": "08:00", "locationType": "Supermarkt", "sapStoreID": "6375", "todayClose": "20:00", "location": {"type": "Point", "coordinates": [6.113321, 51.312098]}}, {"city": "Bemmel", "postalCode": "6681 BN", "street": "Kloosterplaats", "street2": "1", "street3": "", "addressName": "Jumbo Bemmel Kloosterplaats", "uuid": "uaYKYx4XrgEAAAFI1J0YwKxK", "complexNumber": "30459", "showWarningMessage": true, "todayOpen": "08:00", "locationType": "SupermarktPuP", "collectionPoint": true, "sapStoreID": "6406", "todayClose": "21:00", "location": {"type": "Point", "coordinates": [5.899557, 51.891547]}}, {"city": "Beneden-Leeuwen", "postalCode": "6658 EM", "street": "Nijverheidsstraat", "street2": "4", "street3": "", "addressName": "Jumbo Beneden-Leeuwen Nijverheidsstraat", "uuid": "8RsKYx4Xw5cAAAFJ.QgYZ4CR", "complexNumber": "32221", "showWarningMessage": true, "todayOpen": "08:00", "locationType": "SupermarktPuP", "collectionPoint": true, "sapStoreID": "3128", "todayClose": "20:00", "location": {"type": "Point", "coordinates": [5.522079, 51.880765]}}, {"city": "Bergeijk", "postalCode": "5571 LA", "street": "Elsenhof", "street2": "50", "street3": "", "addressName": "Jumbo Bergeijk Elsenhof", "uuid": "RaAKYx4XU4oAAAFKWDxHt71m", "complexNumber": "33036", "showWarningMessage": true, "todayOpen": "08:00", "locationType": "Supermarkt", "sapStoreID": "3685", "todayClose": "21:00", "location": {"type": "Point", "coordinates": [5.356824, 51.321653]}}, {"city": "Bergen op Zoom", "postalCode": "4611 BG", "street": "Burg. van Hasseltstraat", "street2": "1", "street3": "", "addressName": "Jumbo Bergen op Zoom De Parade", "uuid": "JcoKYx4XcqwAAAFIJVoYwKxK", "complexNumber": "32009", "showWarningMessage": true, "todayOpen": "08:00", "locationType": "Supermarkt", "sapStoreID": "4835", "todayClose": "21:00", "location": {"type": "Point", "coordinates": [4.29069, 51.493401]}}, {"city": "Bergen op Zoom", "postalCode": "4617 LG", "street": "Vogelaar", "street2": "29", "street3": "", "addressName": "Jumbo Bergen op Zoom Het Kompas", "uuid": "PtkKYx4Xvp0AAAFIW84YwKxJ", "complexNumber": "33038", "showWarningMessage": true, "todayOpen": "08:00", "locationType": "SupermarktPuP", "collectionPoint": true, "sapStoreID": "3112", "todayClose": "21:00", "location": {"type": "Point", "coordinates": [4.281549, 51.479833]}}, {"city": "Berghem", "postalCode": "5351 AW", "street": "Burg. van Erpstraat", "street2": "10", "street3": "", "addressName": "Jumbo Berghem Burg. van Erpstraat", "uuid": "lkYKYx4XVpYAAAFIl1oYwKxK", "complexNumber": "32010", "showWarningMessage": true, "todayOpen": "08:00", "locationType": "Supermarkt", "sapStoreID": "4836", "todayClose": "20:00", "location": {"type": "Point", "coordinates": [5.56752, 51.774247]}}, {"city": "Bergschenhoek", "postalCode": "2661 CE", "street": "Dorpsstraat", "street2": "39", "street3": "", "addressName": "Jumbo Bergschenhoek Dorpsstraat", "uuid": "sysKYx4X.5cAAAFSyw0qZJ.M", "complexNumber": "33274", "showWarningMessage": true, "todayOpen": "07:00", "locationType": "SupermarktPuP", "collectionPoint": true, "sapStoreID": "3742", "todayClose": "22:00", "location": {"type": "Point", "coordinates": [4.50043, 51.989246]}}, {"city": "Berkel Enschot", "postalCode": "5056 GB", "street": "Eikenbosch", "street2": "17", "street3": "", "addressName": "Jumbo Berkel Enschot Eikenbosch", "uuid": "cpoKYx4XJTYAAAFIE8QYwKxK", "complexNumber": "32011", "showWarningMessage": true, "todayOpen": "08:00", "locationType": "SupermarktPuP", "collectionPoint": true, "sapStoreID": "6524", "todayClose": "20:00", "location": {"type": "Point", "coordinates": [5.139864, 51.58465]}}, {"city": "Berkel en Rodenrijs", "postalCode": "2651 RC", "street": "Esdoornlaan", "street2": "1", "street3": "", "addressName": "Jumbo Berkel en Rodenrijs Esdoornlaan", "uuid": "f1EKYx4XY50AAAFJCgkYZ4CR", "complexNumber": "33040", "showWarningMessage": true, "todayOpen": "07:00", "locationType": "SupermarktPuP", "collectionPoint": true, "sapStoreID": "3434", "todayClose": "21:00", "location": {"type": "Point", "coordinates": [4.489602, 52.002845]}}, {"city": "Berkel en Rodenrijs", "postalCode": "2652 KW", "street": "Westpolderstraat", "street2": "86", "street3": "", "addressName": "Jumbo Berkel en Rodenrijs Westpolderstraat", "uuid": "y34KYx4Xtw8AAAFPSeFeAc7x", "complexNumber": "32200", "showWarningMessage": true, "todayOpen": "07:00", "locationType": "SupermarktPuP", "collectionPoint": true, "sapStoreID": "4713", "todayClose": "21:00", "location": {"type": "Point", "coordinates": [4.454902, 51.990683]}}, {"city": "Berlicum", "postalCode": "5258 AW", "street": "Mercuriusplein", "street2": "67", "street3": "", "addressName": "Jumbo Berlicum Mercuriusplein", "uuid": "B0QKYx4XvB4AAAFIaEEYwKxK", "complexNumber": "30227", "showWarningMessage": true, "todayOpen": "08:00", "locationType": "Supermarkt", "sapStoreID": "4674", "todayClose": "20:00", "location": {"type": "Point", "coordinates": [5.400282, 51.6789]}}, {"city": "Best", "postalCode": "5683 PW", "street": "Eindhovenseweg Zuid", "street2": "63", "street3": "", "addressName": "Jumbo Best Eindhovenseweg Zuid", "uuid": "bTwKYx4XwSQAAAFLWApYbVfl", "complexNumber": "35006", "showWarningMessage": true, "todayOpen": "08:00", "locationType": "PuP", "collectionPoint": true, "sapStoreID": "8848", "todayClose": "20:00", "location": {"type": "Point", "coordinates": [5.414346, 51.503687]}}, {"city": "Beuningen", "postalCode": "6641 CA", "street": "Thorbeckeplein", "street2": "14", "street3": "", "addressName": "Jumbo Beuningen Kalkman", "uuid": "4.YKYx4X6oQAAAFIC.QYwKxJ", "complexNumber": "33042", "showWarningMessage": true, "todayOpen": "08:00", "locationType": "SupermarktPuP", "collectionPoint": true, "sapStoreID": "3435", "todayClose": "20:00", "location": {"type": "Point", "coordinates": [5.770297, 51.859852]}}, {"city": "Bladel", "postalCode": "5531 CP", "street": "Gindrapassage", "street2": "18", "street3": "", "addressName": "Jumbo Bladel Gindrapassage", "uuid": "a.QKYx4XsDgAAAFVPsV.Ky1c", "complexNumber": "32012", "showWarningMessage": true, "todayOpen": "08:00", "locationType": "Supermarkt", "sapStoreID": "4728", "todayClose": "20:00", "location": {"type": "Point", "coordinates": [5.218227, 51.366486]}}, {"city": "Bleiswijk", "postalCode": "2665 BG", "street": "Dorpsstraat", "street2": "39", "street3": "", "addressName": "Jumbo Bleiswijk Dorpsstraat", "uuid": "JAoKYx4XUvkAAAFZaYxOXLRK", "complexNumber": "33006", "showWarningMessage": true, "todayOpen": "08:00", "locationType": "Supermarkt", "sapStoreID": "3176", "todayClose": "20:00", "location": {"type": "Point", "coordinates": [4.530442, 52.010304]}}, {"city": "Blerick", "postalCode": "5921 GD", "street": "Wie\u00ebnpassage", "street2": "40", "street3": "", "addressName": "Jumbo Blerick Jumbo de Wie\u00ebn", "uuid": "3_kKYx4XSH8AAAFLIVQai5Wx", "complexNumber": "33204", "showWarningMessage": true, "todayOpen": "08:00", "locationType": "SupermarktPuP", "collectionPoint": true, "sapStoreID": "3437", "todayClose": "20:00", "location": {"type": "Point", "coordinates": [6.149932, 51.368237]}}, {"city": "Bodegraven", "postalCode": "2411 LG", "street": "Vromade", "street2": "27", "street3": "", "addressName": "Jumbo Bodegraven Langerak Broekvelden", "uuid": "yBgKYx4XNk0AAAFJqAcYZ4CR", "complexNumber": "33045", "showWarningMessage": true, "todayOpen": "08:00", "locationType": "Supermarkt", "sapStoreID": "3554", "todayClose": "21:00", "location": {"type": "Point", "coordinates": [4.751117, 52.076824]}}, {"city": "Bodegraven", "postalCode": "2411 BD", "street": "Raadhuisplein", "street2": "15", "street3": "", "addressName": "Jumbo Bodegraven Langerak Raadhuisplein", "uuid": "XVMKYx4XXJkAAAFIyRMYwKxK", "complexNumber": "33043", "showWarningMessage": true, "todayOpen": "08:00", "locationType": "SupermarktPuP", "collectionPoint": true, "sapStoreID": "3633", "todayClose": "21:00", "location": {"type": "Point", "coordinates": [4.74644, 52.086641]}}, {"city": "Bolsward", "postalCode": "8701 XD", "street": "Snekerstraat", "street2": "14", "street3": "", "addressName": "Jumbo Bolsward Snekerstraat", "uuid": "A78KYx4XbsUAAAFIEL8YwKxK", "complexNumber": "32013", "showWarningMessage": true, "todayOpen": "08:00", "locationType": "SupermarktPuP", "collectionPoint": true, "sapStoreID": "6508", "todayClose": "21:00", "location": {"type": "Point", "coordinates": [5.527809, 53.061388]}}, {"city": "Born", "postalCode": "6121 JB", "street": "Kapelweg", "street2": "4a", "street3": "", "addressName": "Jumbo Born Kapelweg", "uuid": "ohwKYx4XUc4AAAFIXQ0YwKxK", "complexNumber": "33514", "showWarningMessage": true, "todayOpen": "08:00", "locationType": "SupermarktPuP", "collectionPoint": true, "sapStoreID": "3600", "todayClose": "20:00", "location": {"type": "Point", "coordinates": [5.809002, 51.032432]}}, {"city": "Boxmeer", "postalCode": "5831 EK", "street": "Burg. Verkuijlstraat", "street2": "26-32", "street3": "", "addressName": "Jumbo Boxmeer Burg. Verkuijlstraat", "uuid": ".aoKYx4X7RAAAAFJrwcYZ4CR", "complexNumber": "32178", "showWarningMessage": true, "todayOpen": "08:00", "locationType": "SupermarktPuP", "collectionPoint": true, "sapStoreID": "6485", "todayClose": "20:00", "location": {"type": "Point", "coordinates": [5.94989, 51.645361]}}, {"city": "Boxtel", "postalCode": "5283 BV", "street": "Oosterhof", "street2": "19", "street3": "", "addressName": "Jumbo Boxtel Oosterhof", "uuid": "EbgKYx4Xw7YAAAFISUsYwKxK", "complexNumber": "30231", "showWarningMessage": true, "todayOpen": "08:00", "locationType": "SupermarktPuP", "collectionPoint": true, "sapStoreID": "4698", "todayClose": "20:00", "location": {"type": "Point", "coordinates": [5.334548, 51.587163]}}, {"city": "Breda", "postalCode": "4816 GD", "street": "Baliendijk", "street2": "20", "street3": "", "addressName": "Jumbo Breda Baliendijk", "uuid": "k14KYx4XBhkAAAFIalsYwKxK", "complexNumber": "32015", "showWarningMessage": true, "todayOpen": "08:00", "locationType": "Supermarkt", "sapStoreID": "4838", "todayClose": "21:00", "location": {"type": "Point", "coordinates": [4.793045, 51.598767]}}, {"city": "Breda", "postalCode": "4815 HA", "street": "Belcrumweg", "street2": "5-7", "street3": "", "addressName": "Jumbo Breda Belcrumweg", "uuid": "aT0KYx4XVA0AAAFIQDEYwKxK", "complexNumber": "31387", "showWarningMessage": true, "todayOpen": "08:00", "locationType": "Supermarkt", "sapStoreID": "4620", "todayClose": "20:00", "location": {"type": "Point", "coordinates": [4.770219, 51.596607]}}, {"city": "Breda", "postalCode": "4814 PN", "street": "Cypresstraat", "street2": "21", "street3": "", "addressName": "Jumbo Breda Cypresstraat", "uuid": "yh0KYx4XzMAAAAFIqSEYwKrH", "complexNumber": "30233", "showWarningMessage": true, "todayOpen": "08:00", "locationType": "Supermarkt", "sapStoreID": "4648", "todayClose": "20:00", "location": {"type": "Point", "coordinates": [4.753484, 51.58751]}}, {"city": "Breda", "postalCode": "4834 HE", "street": "De Burcht", "street2": "20", "street3": "", "addressName": "Jumbo Breda De Burcht", "uuid": "9d8KYx4XR4IAAAFIXyEYwKxK", "complexNumber": "33046", "showWarningMessage": true, "todayOpen": "08:00", "locationType": "SupermarktPuP", "collectionPoint": true, "sapStoreID": "3695", "todayClose": "20:00", "location": {"type": "Point", "coordinates": [4.806992, 51.572716]}}, {"city": "Breda", "postalCode": "4824 CS", "street": "Donk", "street2": "4", "street3": "", "addressName": "Jumbo Breda De Donk", "uuid": "BqUKYx4Xr3EAAAFIRhYYwKxK", "complexNumber": "33047", "showWarningMessage": true, "todayOpen": "08:00", "locationType": "SupermarktPuP", "collectionPoint": true, "sapStoreID": "3645", "todayClose": "21:00", "location": {"type": "Point", "coordinates": [4.746425, 51.607354]}}, {"city": "Breda", "postalCode": "4812 TA", "street": "Dr. Struyckenplein", "street2": "60", "street3": "", "addressName": "Jumbo Breda Dr. Struyckenplein", "uuid": "6MYKYx4XkaYAAAFIFYMYwKxK", "complexNumber": "32210", "showWarningMessage": true, "todayOpen": "08:00", "locationType": "Supermarkt", "sapStoreID": "4958", "todayClose": "21:00", "location": {"type": "Point", "coordinates": [4.755936, 51.576775]}}, {"city": "Breda", "postalCode": "4815 NZ", "street": "Rat Verleghstraat", "street2": "4", "street3": "", "addressName": "Jumbo Breda Foodmarkt", "uuid": "YKwKYx4XuWcAAAFLDIUJ5jPY", "complexNumber": "32160", "showWarningMessage": true, "todayOpen": "08:00", "locationType": "SupermarktPuP", "collectionPoint": true, "sapStoreID": "4750", "todayClose": "22:00", "location": {"type": "Point", "coordinates": [4.748829, 51.593948]}}, {"city": "Breda", "postalCode": "4813 BS", "street": "Pastoor van Spaandonkstraat", "street2": "60", "street3": "", "addressName": "Jumbo Breda WC Princenhage", "uuid": "kbcKYx4Xz1kAAAFKhtR0LVDS", "complexNumber": "33049", "showWarningMessage": true, "todayOpen": "08:00", "locationType": "SupermarktPuP", "collectionPoint": true, "sapStoreID": "3137", "todayClose": "20:00", "location": {"type": "Point", "coordinates": [4.739012, 51.578387]}}, {"city": "Breskens", "postalCode": "4511 GL", "street": "Burg. van Zuyenstraat", "street2": "79", "street3": "", "addressName": "Jumbo Breskens Burg. van Zuyenstraat", "uuid": "yc0KYx4XnCoAAAFIg94YwKxJ", "complexNumber": "33515", "showWarningMessage": true, "todayOpen": "08:00", "locationType": "SupermarktPuP", "collectionPoint": true, "sapStoreID": "3414", "todayClose": "20:00", "location": {"type": "Point", "coordinates": [3.548912, 51.395932]}}, {"city": "Breukelen", "postalCode": "3621 JX", "street": "Karel Doormanweg", "street2": "10-25", "street3": "", "addressName": "Jumbo Breukelen Peter Bogers", "uuid": "ovoKYx4XLp4AAAFI4uYYwKxJ", "complexNumber": "33050", "showWarningMessage": true, "todayOpen": "08:00", "locationType": "SupermarktPuP", "collectionPoint": true, "sapStoreID": "3438", "todayClose": "20:00", "location": {"type": "Point", "coordinates": [4.999103, 52.180958]}}, {"city": "Brielle", "postalCode": "3231 KD", "street": "Thoelaverweg", "street2": "1", "street3": "", "addressName": "Jumbo Brielle Thoelaverweg", "uuid": "OG8KYx4XP4wAAAFIlsEYwKxK", "complexNumber": "32017", "showWarningMessage": true, "todayOpen": "08:00", "locationType": "Supermarkt", "sapStoreID": "6525", "todayClose": "20:00", "location": {"type": "Point", "coordinates": [4.169814, 51.899563]}}, {"city": "Brummen", "postalCode": "6971 BR", "street": "Ambachtstraat", "street2": "38", "street3": "", "addressName": "Jumbo Brummen Ambachtstraat", "uuid": "txoKYx4XEFoAAAFIorkYwKxK", "complexNumber": "30363", "showWarningMessage": true, "todayOpen": "08:00", "locationType": "SupermarktPuP", "collectionPoint": true, "sapStoreID": "6489", "todayClose": "20:00", "location": {"type": "Point", "coordinates": [6.154375, 52.088166]}}, {"city": "Budel", "postalCode": "6021 CA", "street": "Capucijnerplein", "street2": "17", "street3": "", "addressName": "Jumbo Budel Jumbo Hesselberth", "uuid": "n24KYx4XZx8AAAFNsxtasGod", "complexNumber": "33516", "showWarningMessage": true, "todayOpen": "08:00", "locationType": "Supermarkt", "sapStoreID": "3599", "todayClose": "20:00", "location": {"type": "Point", "coordinates": [5.576135, 51.273724]}}, {"city": "Bunschoten-Spakenburg", "postalCode": "3751 BT", "street": "de Ziel", "street2": "45-51", "street3": "", "addressName": "Jumbo Bunschoten-Spakenburg de Ziel", "uuid": "CywKYx4XZYkAAAFIW4cYwKxK", "complexNumber": "31576", "showWarningMessage": true, "todayOpen": "08:00", "locationType": "SupermarktPuP", "collectionPoint": true, "sapStoreID": "6340", "todayClose": "21:00", "location": {"type": "Point", "coordinates": [5.37909, 52.251971]}}, {"city": "Burgum", "postalCode": "9251 JS", "street": "Markt", "street2": "38", "street3": "", "addressName": "Jumbo Burgum Markt", "uuid": "URUKYx4XJmMAAAFJgqAFS1eI", "complexNumber": "32216", "showWarningMessage": true, "todayOpen": "08:00", "locationType": "SupermarktPuP", "collectionPoint": true, "sapStoreID": "7034", "todayClose": "21:00", "location": {"type": "Point", "coordinates": [5.993016, 53.19055]}}, {"city": "Cadier en Keer", "postalCode": "6267 AD", "street": "Rijksweg", "street2": "27", "street3": "", "addressName": "Jumbo Cadier en Keer Rijksweg", "uuid": "G7kKYx4XcAIAAAFI8lsYwKxK", "complexNumber": "32018", "showWarningMessage": true, "todayOpen": "08:00", "locationType": "Supermarkt", "sapStoreID": "4846", "todayClose": "20:00", "location": {"type": "Point", "coordinates": [5.760103, 50.829337]}}, {"city": "Capelle aan den IJssel", "postalCode": "2903 AE", "street": "Koperwiek", "street2": "24-30", "street3": "", "addressName": "Jumbo Capelle aan den IJssel Koperwiek", "uuid": "7mMKYx4X2O8AAAFIpjsYwKxK", "complexNumber": "30235", "showWarningMessage": true, "todayOpen": "08:00", "locationType": "SupermarktPuP", "collectionPoint": true, "sapStoreID": "4658", "todayClose": "21:00", "location": {"type": "Point", "coordinates": [4.59021, 51.92917]}}, {"city": "Capelle aan den IJssel", "postalCode": "2906 TH", "street": "Wingerd", "street2": "251", "street3": "", "addressName": "Jumbo Capelle aan den IJssel Wingerd", "uuid": "tOcKYx4XRn8AAAFIVBsYwKxK", "complexNumber": "33051", "showWarningMessage": true, "todayOpen": "08:00", "locationType": "Supermarkt", "sapStoreID": "3673", "todayClose": "21:00", "location": {"type": "Point", "coordinates": [4.567031, 51.935262]}}, {"city": "Coevorden", "postalCode": "7741 KA", "street": "Ing. A. Vonkweg", "street2": "6-8", "street3": "", "addressName": "Jumbo Coevorden Ing. A. Vonkweg", "uuid": "Ca8KYx4XlBcAAAFIVEYYwKxK", "complexNumber": "31404", "showWarningMessage": true, "todayOpen": "08:00", "locationType": "SupermarktPuP", "collectionPoint": true, "sapStoreID": "6496", "todayClose": "20:00", "location": {"type": "Point", "coordinates": [6.735401, 52.670375]}}, {"city": "Coevorden", "postalCode": "7741 KH", "street": "EDS-Plein", "street2": "3", "street3": "", "addressName": "Jumbo Coevorden Rene Kromkamp", "uuid": "TeAKYx4XPUoAAAFJj40FS1eI", "complexNumber": "32219", "showWarningMessage": true, "todayOpen": "08:00", "locationType": "Supermarkt", "sapStoreID": "3630", "todayClose": "20:00", "location": {"type": "Point", "coordinates": [6.733706, 52.662229]}}, {"city": "Colmschate", "postalCode": "7422 LL", "street": "Flora", "street2": "2", "street3": "", "addressName": "Jumbo Colmschate Jumbo Hans Kok", "uuid": "nLcKYx4XdXcAAAFMt9khgXLr", "complexNumber": "33067", "showWarningMessage": true, "todayOpen": "08:00", "locationType": "SupermarktPuP", "collectionPoint": true, "sapStoreID": "3626", "todayClose": "21:00", "location": {"type": "Point", "coordinates": [6.217211, 52.247877]}}, {"city": "Cuijk", "postalCode": "5432 DW", "street": "Lavendel", "street2": "382", "street3": "", "addressName": "Jumbo Cuijk Wijk Heeswijkse Kampen", "uuid": "gmQKYx4XMhsAAAFIncEYwKxK", "complexNumber": "32019", "showWarningMessage": true, "todayOpen": "08:00", "locationType": "SupermarktPuP", "collectionPoint": true, "sapStoreID": "6526", "todayClose": "21:00", "location": {"type": "Point", "coordinates": [5.859177, 51.741554]}}, {"city": "Dalfsen", "postalCode": "7721 CH", "street": "Wilhelminastraat", "street2": "18", "street3": "", "addressName": "Jumbo Dalfsen Kamphuis", "uuid": "WgIKYx4Xfs8AAAFI3.YYwKxJ", "complexNumber": "33241", "showWarningMessage": true, "todayOpen": "08:00", "locationType": "SupermarktPuP", "collectionPoint": true, "sapStoreID": "3440", "todayClose": "20:00", "location": {"type": "Point", "coordinates": [6.260976, 52.505816]}}, {"city": "De Koog (Texel)", "postalCode": "1796 BR", "street": "Nikadel", "street2": "73", "street3": "", "addressName": "Jumbo De Koog (Texel) De Koog", "uuid": "MWIKYx4XI78AAAFIJ68YwKxK", "complexNumber": "30209", "showWarningMessage": true, "todayOpen": "08:00", "locationType": "Supermarkt", "sapStoreID": "6463", "todayClose": "21:00", "location": {"type": "Point", "coordinates": [4.764259, 53.098468]}}, {"city": "De Lier", "postalCode": "2678 GP", "street": "Oranjeplein", "street2": "40", "street3": "", "addressName": "Jumbo De Lier Oranjeplein", "uuid": "bRcKYx4XNdcAAAFIM8sYwKxJ", "complexNumber": "33052", "showWarningMessage": true, "todayOpen": "08:00", "locationType": "SupermarktPuP", "collectionPoint": true, "sapStoreID": "3097", "todayClose": "21:00", "location": {"type": "Point", "coordinates": [4.249613, 51.97373]}}, {"city": "De Meern", "postalCode": "3454 CJ", "street": "Mereveldplein", "street2": "3", "street3": "", "addressName": "Jumbo De Meern Mereveldplein", "uuid": "QUEKYx4X.A4AAAFZH1cnMIXx", "complexNumber": "32263", "showWarningMessage": true, "todayOpen": "08:00", "locationType": "SupermarktPuP", "collectionPoint": true, "sapStoreID": "4739", "todayClose": "22:00", "location": {"type": "Point", "coordinates": [5.038105, 52.079717]}}, {"city": "Dedemsvaart", "postalCode": "7701 GW", "street": "Markt", "street2": "32", "street3": "", "addressName": "Jumbo Dedemsvaart Jumbo Joosten Dedemsvaart", "uuid": "Og0KYx4Xi6QAAAFSgAw6N1dz", "complexNumber": "32203", "showWarningMessage": true, "todayOpen": "08:00", "locationType": "Supermarkt", "sapStoreID": "7058", "todayClose": "21:00", "location": {"type": "Point", "coordinates": [6.45536, 52.601379]}}, {"city": "Delft", "postalCode": "2611 DC", "street": "Bastiaansplein", "street2": "135", "street3": "", "addressName": "Jumbo Delft Bastiaansplein", "uuid": "O1YKYx4XAw8AAAFIdb8YwKxJ", "complexNumber": "33054", "showWarningMessage": true, "todayOpen": "08:00", "locationType": "SupermarktPuP", "collectionPoint": true, "sapStoreID": "3052", "todayClose": "22:00", "location": {"type": "Point", "coordinates": [4.36472, 52.009115]}}, {"city": "Delft", "postalCode": "2625 RD", "street": "Vrijheidslaan", "street2": "1", "street3": "", "addressName": "Jumbo Delft Buitenhof", "uuid": "bYUKYx4XRLQAAAFI2OYYwKxJ", "complexNumber": "33058", "showWarningMessage": true, "todayOpen": "08:00", "locationType": "SupermarktPuP", "collectionPoint": true, "sapStoreID": "3442", "todayClose": "22:00", "location": {"type": "Point", "coordinates": [4.345893, 51.987493]}}, {"city": "Delft", "postalCode": "2623 CB", "street": "Dasstraat", "street2": "9", "street3": "", "addressName": "Jumbo Delft Tanthof", "uuid": "qLAKYx4XcTYAAAFI.B0YwKxK", "complexNumber": "33056", "showWarningMessage": true, "todayOpen": "08:00", "locationType": "Supermarkt", "sapStoreID": "3683", "todayClose": "20:00", "location": {"type": "Point", "coordinates": [4.360654, 51.985163]}}, {"city": "Delft", "postalCode": "2624 ET", "street": "Troelstralaan", "street2": "11-13", "street3": "", "addressName": "Jumbo Delft Troelstralaan", "uuid": "R.wKYx4XPQAAAAFIkLwYwKxJ", "complexNumber": "33057", "showWarningMessage": true, "todayOpen": "08:00", "locationType": "Supermarkt", "sapStoreID": "3051", "todayClose": "22:00", "location": {"type": "Point", "coordinates": [4.3537, 51.99815]}}, {"city": "Delfzijl", "postalCode": "9934 JB", "street": "Jachtlaan", "street2": "4-10", "street3": "", "addressName": "Jumbo Delfzijl Jachtlaan", "uuid": "xdcKYx4XN6AAAAFMgIAhgW3F", "complexNumber": "33519", "showWarningMessage": true, "todayOpen": "08:00", "locationType": "SupermarktPuP", "collectionPoint": true, "sapStoreID": "3728", "todayClose": "20:00", "location": {"type": "Point", "coordinates": [6.91419, 53.32693]}}, {"city": "Delfzijl", "postalCode": "9933 KM", "street": "de Wending", "street2": "11", "street3": "", "addressName": "Jumbo Delfzijl de Wending", "uuid": "G0AKYx4XMRkAAAFIVh8YwKrH", "complexNumber": "31585", "showWarningMessage": true, "todayOpen": "08:00", "locationType": "Supermarkt", "sapStoreID": "4644", "todayClose": "20:00", "location": {"type": "Point", "coordinates": [6.911093, 53.335617]}}, {"city": "Den Bosch", "postalCode": "5233 AN", "street": "Rompertpassage", "street2": "21", "street3": "", "addressName": "Jumbo Den Bosch De Rompertpassage", "uuid": "V6gKYx4XWl0AAAFIgFwYwKxK", "complexNumber": "32021", "showWarningMessage": true, "todayOpen": "08:00", "locationType": "SupermarktPuP", "collectionPoint": true, "sapStoreID": "4848", "todayClose": "20:00", "location": {"type": "Point", "coordinates": [5.314117, 51.712313]}}, {"city": "Den Bosch", "postalCode": "5224 AR", "street": "Helftheuvelpassage", "street2": "346", "street3": "", "addressName": "Jumbo Den Bosch Helftheuvelpassage", "uuid": "RhYKYx4XL9YAAAFN.xVasCIE", "complexNumber": "33060", "showWarningMessage": true, "todayOpen": "08:00", "locationType": "SupermarktPuP", "collectionPoint": true, "sapStoreID": "3537", "todayClose": "20:00", "location": {"type": "Point", "coordinates": [5.266967, 51.694717]}}, {"city": "Den Bosch", "postalCode": "5235 KS", "street": "Lokerenpassage", "street2": "138", "street3": "", "addressName": "Jumbo Den Bosch Lokerenpassage", "uuid": "BeEKYx4XZAwAAAFI2pEYwKxK", "complexNumber": "30269", "showWarningMessage": true, "todayOpen": "08:00", "locationType": "SupermarktPuP", "collectionPoint": true, "sapStoreID": "6373", "todayClose": "20:00", "location": {"type": "Point", "coordinates": [5.30717, 51.72656]}}, {"city": "Den Bosch", "postalCode": "5216 BM", "street": "Pettelaarseweg", "street2": "375-377", "street3": "", "addressName": "Jumbo Den Bosch Pettelaarseweg", "uuid": "n1AKYx4XPbsAAAFJnwcYZ4CR", "complexNumber": "32227", "showWarningMessage": true, "todayOpen": "08:00", "locationType": "SupermarktPuP", "collectionPoint": true, "sapStoreID": "3555", "todayClose": "20:00", "location": {"type": "Point", "coordinates": [5.317005, 51.679884]}}, {"city": "Den Bosch", "postalCode": "5215 CZ", "street": "Rivierenplein", "street2": "26", "street3": "", "addressName": "Jumbo Den Bosch Rivierenplein", "uuid": "ltUKYx4Xz3IAAAFIkwcYwKxK", "complexNumber": "33062", "showWarningMessage": true, "todayOpen": "08:00", "locationType": "Supermarkt", "sapStoreID": "3556", "todayClose": "20:00", "location": {"type": "Point", "coordinates": [5.329953, 51.690419]}}, {"city": "Den Burg (Texel)", "postalCode": "1791 EZ", "street": "Vogelenzang", "street2": "25", "street3": "", "addressName": "Jumbo Den Burg (Texel) Den Burg", "uuid": "7YkKYx4XWBsAAAFIUkoYwKWg", "complexNumber": "30553", "showWarningMessage": true, "todayOpen": "08:00", "locationType": "Supermarkt", "sapStoreID": "6370", "todayClose": "21:00", "location": {"type": "Point", "coordinates": [4.79511, 53.05526]}}, {"city": "Den Dungen", "postalCode": "5271 XD", "street": "Maaskantje", "street2": "29", "street3": "", "addressName": "Jumbo Den Dungen Maaskantje", "uuid": "5JgKYx4X2HAAAAFIK9EYwKxK", "complexNumber": "32022", "showWarningMessage": true, "todayOpen": "08:00", "locationType": "Supermarkt", "sapStoreID": "6600", "todayClose": "21:00", "location": {"type": "Point", "coordinates": [5.369435, 51.660613]}}, {"city": "Den Haag", "postalCode": "2551 KE", "street": "Alphons Diepenbrockhof", "street2": "6", "street3": "", "addressName": "Jumbo Den Haag Alphons Diepenbrockhof", "uuid": "VJ0KYx4XQ7kAAAFI3xMYwKxK", "complexNumber": "33063", "showWarningMessage": true, "todayOpen": "08:00", "locationType": "Supermarkt", "sapStoreID": "3637", "todayClose": "20:00", "location": {"type": "Point", "coordinates": [4.231047, 52.05962]}}, {"city": "Den Haag", "postalCode": "2565 DD", "street": "Anemoonstraat", "street2": "4", "street3": "", "addressName": "Jumbo Den Haag Anemoonstraat", "uuid": "du4KYx4XZeUAAAFIyF0YwKxK", "complexNumber": "32023", "showWarningMessage": true, "todayOpen": "08:00", "locationType": "SupermarktPuP", "collectionPoint": true, "sapStoreID": "4850", "todayClose": "22:00", "location": {"type": "Point", "coordinates": [4.259622, 52.076272]}}, {"city": "Den Haag", "postalCode": "2543 BG", "street": "De Stede", "street2": "21", "street3": "", "addressName": "Jumbo Den Haag De Stede", "uuid": "m2EKYx4XbBgAAAFIsFwYwKxK", "complexNumber": "32024", "showWarningMessage": true, "todayOpen": "08:00", "locationType": "Supermarkt", "sapStoreID": "4852", "todayClose": "22:00", "location": {"type": "Point", "coordinates": [4.259757, 52.043748]}}, {"city": "Den Haag", "postalCode": "2496 SE", "street": "Oude Kustlijn", "street2": "6", "street3": "", "addressName": "Jumbo Den Haag George en Dajenne Overgaag", "uuid": "x0wKYx4XLiwAAAFInOkYwKxJ", "complexNumber": "33064", "showWarningMessage": true, "todayOpen": "08:00", "locationType": "SupermarktPuP", "collectionPoint": true, "sapStoreID": "3443", "todayClose": "21:00", "location": {"type": "Point", "coordinates": [4.369199, 52.041106]}}, {"city": "Den Haag", "postalCode": "2521 SC", "street": "Laakweg", "street2": "126", "street3": "", "addressName": "Jumbo Den Haag Laakweg", "uuid": "xBUKYx4XtUsAAAFICDUYwKxK", "complexNumber": "32155", "showWarningMessage": true, "todayOpen": "08:00", "locationType": "SupermarktPuP", "collectionPoint": true, "sapStoreID": "4635", "todayClose": "22:00", "location": {"type": "Point", "coordinates": [4.329947, 52.067176]}}, {"city": "Den Haag", "postalCode": "2545 GV", "street": "Leyweg", "street2": "922K", "street3": "", "addressName": "Jumbo Den Haag Leyweg", "uuid": "ykYKYx4Xei8AAAFIfl0YwKxK", "complexNumber": "32025", "showWarningMessage": true, "todayOpen": "08:00", "locationType": "SupermarktPuP", "collectionPoint": true, "sapStoreID": "4853", "todayClose": "21:00", "location": {"type": "Point", "coordinates": [4.275331, 52.049555]}}, {"city": "Den Haag", "postalCode": "2547 CK", "street": "Volendamlaan", "street2": "670", "street3": "", "addressName": "Jumbo Den Haag Mieremet", "uuid": "QcIKYx4XHkIAAAFInukYwKxJ", "complexNumber": "33065", "showWarningMessage": true, "todayOpen": "08:00", "locationType": "Supermarkt", "sapStoreID": "3444", "todayClose": "21:00", "location": {"type": "Point", "coordinates": [4.269073, 52.062237]}}, {"city": "Den Ham", "postalCode": "7683 BB", "street": "Grotestraat", "street2": "2", "street3": "", "addressName": "Jumbo Den Ham Jumbo Rudy Veldkamp", "uuid": "AnYKYx4X2vcAAAFInAsYwKxK", "complexNumber": "33520", "showWarningMessage": true, "todayOpen": "08:00", "locationType": "Supermarkt", "sapStoreID": "3591", "todayClose": "20:00", "location": {"type": "Point", "coordinates": [6.494559, 52.464503]}}, {"city": "Deurne", "postalCode": "5751 VH", "street": "Schelde", "street2": "40", "street3": "", "addressName": "Jumbo Deurne De Koolhof", "uuid": "fIQKYx4XE5EAAAFI814YwKxK", "complexNumber": "32026", "showWarningMessage": true, "todayOpen": "08:00", "locationType": "Supermarkt", "sapStoreID": "4854", "todayClose": "20:00", "location": {"type": "Point", "coordinates": [5.804116, 51.456157]}}, {"city": "Deurne", "postalCode": "5751 HB", "street": "Stationsstraat", "street2": "43", "street3": "", "addressName": "Jumbo Deurne Stationsstraat", "uuid": "N7QKYx4XP1QAAAFIBccYwKxJ", "complexNumber": "33066", "showWarningMessage": true, "todayOpen": "08:00", "locationType": "Supermarkt", "sapStoreID": "3083", "todayClose": "21:00", "location": {"type": "Point", "coordinates": [5.792282, 51.461763]}}, {"city": "Deventer", "postalCode": "7411 EH", "street": "Boreelplein", "street2": "4", "street3": "", "addressName": "Jumbo Deventer De Boreel", "uuid": "VecKYx4XpYYAAAFIwlcYwKxK", "complexNumber": "32028", "showWarningMessage": true, "todayOpen": "08:00", "locationType": "SupermarktPuP", "collectionPoint": true, "sapStoreID": "4827", "todayClose": "21:00", "location": {"type": "Point", "coordinates": [6.165298, 52.253411]}}, {"city": "Deventer", "postalCode": "7412 MH", "street": "Constantijn Huygensstraat", "street2": "2", "street3": "", "addressName": "Jumbo Deventer Eddie Dijkman", "uuid": "K8IKYx4XgL8AAAFIHPoYwKxJ", "complexNumber": "33500", "showWarningMessage": true, "todayOpen": "08:00", "locationType": "SupermarktPuP", "collectionPoint": true, "sapStoreID": "3501", "todayClose": "21:00", "location": {"type": "Point", "coordinates": [6.14273, 52.2674]}}, {"city": "Diemen", "postalCode": "1113 HL", "street": "Gruttoplein", "street2": "9", "street3": "", "addressName": "Jumbo Diemen Gruttoplein", "uuid": "9MQKYx4XPuoAAAFIpqgYwKxK", "complexNumber": "31391", "showWarningMessage": true, "todayOpen": "08:00", "locationType": "Supermarkt", "sapStoreID": "6445", "todayClose": "20:00", "location": {"type": "Point", "coordinates": [4.977776, 52.349806]}}, {"city": "Diemen", "postalCode": "1112 PS", "street": "Kruidenhof", "street2": "26", "street3": "", "addressName": "Jumbo Diemen Kruidenhof", "uuid": "Xk4KYx4XaTsAAAFInagYwKxK", "complexNumber": "30236", "showWarningMessage": true, "todayOpen": "08:00", "locationType": "SupermarktPuP", "collectionPoint": true, "sapStoreID": "6444", "todayClose": "20:00", "location": {"type": "Point", "coordinates": [4.957084, 52.333628]}}, {"city": "Dinxperlo", "postalCode": "7091 BT", "street": "Heelweg", "street2": "73", "street3": "", "addressName": "Jumbo Dinxperlo Heelweg", "uuid": "nVwKYx4XxicAAAFIS9kYwKxJ", "complexNumber": "33261", "showWarningMessage": true, "todayOpen": "08:00", "locationType": "SupermarktPuP", "collectionPoint": true, "sapStoreID": "3400", "todayClose": "20:00", "location": {"type": "Point", "coordinates": [6.495248, 51.860851]}}, {"city": "Doetinchem", "postalCode": "7009 HA", "street": "J.F. Kennedylaan", "street2": "62", "street3": "", "addressName": "Jumbo Doetinchem J.F. Kennedylaan", "uuid": "snQKYx4XAg0AAAFIc30YwKxK", "complexNumber": "32029", "showWarningMessage": true, "todayOpen": "08:00", "locationType": "SupermarktPuP", "collectionPoint": true, "sapStoreID": "4935", "todayClose": "21:00", "location": {"type": "Point", "coordinates": [6.296354, 51.969476]}}, {"city": "Dokkum", "postalCode": "9101 AB", "street": "Hantumerweg", "street2": "14", "street3": "", "addressName": "Jumbo Dokkum Hantumerweg", "uuid": "bqgKYx4XcOcAAAFI1rMYwKxK", "complexNumber": "31444", "showWarningMessage": true, "todayOpen": "08:00", "locationType": "SupermarktPuP", "collectionPoint": true, "sapStoreID": "6477", "todayClose": "21:00", "location": {"type": "Point", "coordinates": [5.998279, 53.329377]}}, {"city": "Dongen", "postalCode": "5104 JZ", "street": "Mgr. Schaepmanlaan", "street2": "8", "street3": "", "addressName": "Jumbo Dongen Mgr. Schaepmanlaan", "uuid": "7H8KYx4Xn5YAAAFJDQkYZ4CR", "complexNumber": "30814", "showWarningMessage": true, "todayOpen": "08:00", "locationType": "SupermarktPuP", "collectionPoint": true, "sapStoreID": "4602", "todayClose": "20:00", "location": {"type": "Point", "coordinates": [4.942178, 51.627679]}}, {"city": "Doorn", "postalCode": "3941 ES", "street": "Plein 1923", "street2": "26", "street3": "", "addressName": "Jumbo Doorn Plein 1923", "uuid": "JUMKYx4XydoAAAFJEQoYZ4CR", "complexNumber": "33070", "showWarningMessage": true, "todayOpen": "08:00", "locationType": "SupermarktPuP", "collectionPoint": true, "sapStoreID": "3684", "todayClose": "21:00", "location": {"type": "Point", "coordinates": [5.346111, 52.03446]}}, {"city": "Doorwerth", "postalCode": "6865 GC", "street": "Mozartlaan", "street2": "66", "street3": "", "addressName": "Jumbo Doorwerth De Weerd", "uuid": "xSgKYx4XXk8AAAFJOQoYZ4CR", "complexNumber": "33071", "showWarningMessage": true, "todayOpen": "08:00", "locationType": "SupermarktPuP", "collectionPoint": true, "sapStoreID": "3130", "todayClose": "20:00", "location": {"type": "Point", "coordinates": [5.794896, 51.979279]}}, {"city": "Dordrecht", "postalCode": "3313 CS", "street": "Merwedestraat", "street2": "50", "street3": "", "addressName": "Jumbo Dordrecht Merwedestraat", "uuid": "8UkKYx4X4q8AAAFI.0AYwKxK", "complexNumber": "30179", "showWarningMessage": true, "todayOpen": "08:00", "locationType": "SupermarktPuP", "collectionPoint": true, "sapStoreID": "4667", "todayClose": "21:00", "location": {"type": "Point", "coordinates": [4.696502, 51.819026]}}, {"city": "Dordrecht", "postalCode": "3318 JW", "street": "P.A. de Kokplein", "street2": "127", "street3": "", "addressName": "Jumbo Dordrecht P.A. de Kokplein", "uuid": "0fsKYx4XaNkAAAFIYJYYwKxK", "complexNumber": "30374", "showWarningMessage": true, "todayOpen": "08:00", "locationType": "SupermarktPuP", "collectionPoint": true, "sapStoreID": "6380", "todayClose": "21:00", "location": {"type": "Point", "coordinates": [4.6765, 51.784875]}}, {"city": "Dordrecht", "postalCode": "3328 DN", "street": "Slangenburg", "street2": "5", "street3": "", "addressName": "Jumbo Dordrecht Slangenburg", "uuid": "S6EKYx4XteEAAAFIFToYwKxK", "complexNumber": "32153", "showWarningMessage": true, "todayOpen": "08:00", "locationType": "Supermarkt", "sapStoreID": "4653", "todayClose": "20:00", "location": {"type": "Point", "coordinates": [4.674954, 51.774373]}}, {"city": "Drachten", "postalCode": "9204 JX", "street": "Eems", "street2": "30", "street3": "", "addressName": "Jumbo Drachten Eems", "uuid": "GBEKYx4XUa4AAAFM_n4hgW3F", "complexNumber": "33522", "showWarningMessage": true, "todayOpen": "08:00", "locationType": "Supermarkt", "sapStoreID": "3644", "todayClose": "21:00", "location": {"type": "Point", "coordinates": [6.074306, 53.098882]}}, {"city": "Drachten", "postalCode": "9201 GT", "street": "Stationsweg", "street2": "164", "street3": "", "addressName": "Jumbo Drachten Stationsweg", "uuid": "3bEKYx4Xp0QAAAFI77kYwKxK", "complexNumber": "32031", "showWarningMessage": true, "todayOpen": "08:00", "locationType": "SupermarktPuP", "collectionPoint": true, "sapStoreID": "6500", "todayClose": "21:00", "location": {"type": "Point", "coordinates": [6.096756, 53.117626]}}, {"city": "Dreumel", "postalCode": "6621 CJ", "street": "Ekershof", "street2": "5", "street3": "", "addressName": "Jumbo Dreumel Ekershof", "uuid": "M7cKYx4XbvUAAAFIobQYwKxK", "complexNumber": "32186", "showWarningMessage": true, "todayOpen": "08:00", "locationType": "Supermarkt", "sapStoreID": "6480", "todayClose": "20:00", "location": {"type": "Point", "coordinates": [5.431719, 51.848035]}}, {"city": "Driebergen", "postalCode": "3972 CV", "street": "De Sluis", "street2": "12", "street3": "", "addressName": "Jumbo Driebergen Verberne", "uuid": "NkYKYx4X84cAAAFILSEYwKxK", "complexNumber": "33072", "showWarningMessage": true, "todayOpen": "08:00", "locationType": "SupermarktPuP", "collectionPoint": true, "sapStoreID": "3693", "todayClose": "20:00", "location": {"type": "Point", "coordinates": [5.273536, 52.049957]}}, {"city": "Dronten", "postalCode": "8254 KL", "street": "De Binnenloop", "street2": "10", "street3": "", "addressName": "Jumbo Dronten De Binnenloop", "uuid": "DEYKYx4Xb8cAAAFIRtQYwKxK", "complexNumber": "32032", "showWarningMessage": true, "todayOpen": "08:00", "locationType": "SupermarktPuP", "collectionPoint": true, "sapStoreID": "7044", "todayClose": "21:00", "location": {"type": "Point", "coordinates": [5.716434, 52.525239]}}, {"city": "Dronten", "postalCode": "8251 TH", "street": "Wardhof", "street2": "8", "street3": "", "addressName": "Jumbo Dronten De Wardhof", "uuid": "Po8KYx4XB.IAAAFIA_MYwKrG", "complexNumber": "33523", "showWarningMessage": true, "todayOpen": "08:00", "locationType": "Supermarkt", "sapStoreID": "3543", "todayClose": "21:00", "location": {"type": "Point", "coordinates": [5.721375, 52.513091]}}, {"city": "Drunen", "postalCode": "5151 BP", "street": "Grotestraat", "street2": "164B", "street3": "", "addressName": "Jumbo Drunen Grotestraat", "uuid": "Rq4KYx4XK1YAAAFIt18YwKxK", "complexNumber": "32145", "showWarningMessage": true, "todayOpen": "08:00", "locationType": "SupermarktPuP", "collectionPoint": true, "sapStoreID": "4858", "todayClose": "21:00", "location": {"type": "Point", "coordinates": [5.135548, 51.686841]}}, {"city": "Druten", "postalCode": "6651 VD", "street": "Marktpassage", "street2": "15", "street3": "", "addressName": "Jumbo Druten Marktpassage", "uuid": "mPMKYx4XP84AAAFIcisYwKxK", "complexNumber": "31392", "showWarningMessage": true, "todayOpen": "08:00", "locationType": "Supermarkt", "sapStoreID": "4610", "todayClose": "20:00", "location": {"type": "Point", "coordinates": [5.610155, 51.890251]}}, {"city": "Duiven", "postalCode": "6922 ER", "street": "Eilandplein", "street2": "508", "street3": "", "addressName": "Jumbo Duiven Gradussen Eilandplein", "uuid": "3hUKYx4Xv4sAAAFIuKEYwKxK", "complexNumber": "30098", "showWarningMessage": true, "todayOpen": "08:00", "locationType": "Supermarkt", "sapStoreID": "6418", "todayClose": "20:00", "location": {"type": "Point", "coordinates": [6.006349, 51.941391]}}, {"city": "Duiven", "postalCode": "6921 BX", "street": "Pastoriestraat", "street2": "2", "street3": "", "addressName": "Jumbo Duiven Gradussen Pastoriestraat", "uuid": "4wgKYx4XnB4AAAFIkOkYwKxJ", "complexNumber": "33073", "showWarningMessage": true, "todayOpen": "08:00", "locationType": "Supermarkt", "sapStoreID": "3448", "todayClose": "20:00", "location": {"type": "Point", "coordinates": [6.022794, 51.950217]}}, {"city": "Ede", "postalCode": "6714 DP", "street": "Bellestein", "street2": "63", "street3": "", "addressName": "Jumbo Ede Bellestein", "uuid": "cgUKYx4XDBQAAAFItrkYwKxK", "complexNumber": "30559", "showWarningMessage": true, "todayOpen": "08:00", "locationType": "SupermarktPuP", "collectionPoint": true, "sapStoreID": "6493", "todayClose": "21:00", "location": {"type": "Point", "coordinates": [5.64384, 52.042685]}}, {"city": "Eelde", "postalCode": "9761 CA", "street": "Stoffer Holtjerweg", "street2": "1", "street3": "", "addressName": "Jumbo Eelde Jumbo Pepping Eelde", "uuid": "MmgKYx4XLxcAAAFNjetmVAMd", "complexNumber": "33074", "showWarningMessage": true, "todayOpen": "08:00", "locationType": "SupermarktPuP", "collectionPoint": true, "sapStoreID": "3653", "todayClose": "20:00", "location": {"type": "Point", "coordinates": [6.564739, 53.133709]}}, {"city": "Eerbeek", "postalCode": "6961 CL", "street": "Loenenseweg", "street2": "3", "street3": "", "addressName": "Jumbo Eerbeek Loenenseweg", "uuid": "pVUKYx4XdPcAAAFIAXgYwKrH", "complexNumber": "30278", "showWarningMessage": true, "todayOpen": "08:00", "locationType": "SupermarktPuP", "collectionPoint": true, "sapStoreID": "6400", "todayClose": "20:00", "location": {"type": "Point", "coordinates": [6.061368, 52.105392]}}, {"city": "Eersel", "postalCode": "5521 KC", "street": "Willibrorduslaan", "street2": "8", "street3": "", "addressName": "Jumbo Eersel Jan Daris", "uuid": "I4UKYx4XUC8AAAFJEIMFS1eI", "complexNumber": "33525", "showWarningMessage": true, "todayOpen": "08:00", "locationType": "Supermarkt", "sapStoreID": "3451", "todayClose": "21:00", "location": {"type": "Point", "coordinates": [5.316678, 51.361505]}}, {"city": "Egmond aan Zee", "postalCode": "1931 AN", "street": "Voorstraat", "street2": "90", "street3": "", "addressName": "Jumbo Egmond aan Zee Voorstraat", "uuid": "2KUKYx4XnXUAAAFJuI4FS1eI", "complexNumber": "33076", "showWarningMessage": true, "todayOpen": "07:30", "locationType": "SupermarktPuP", "collectionPoint": true, "sapStoreID": "3652", "todayClose": "21:00", "location": {"type": "Point", "coordinates": [4.626381, 52.618704]}}, {"city": "Eibergen", "postalCode": "7151 CR", "street": "Brink", "street2": "35", "street3": "", "addressName": "Jumbo Eibergen Brink", "uuid": "lj0KYx4Xrk4AAAFIrekYwKxJ", "complexNumber": "33526", "showWarningMessage": true, "todayOpen": "08:00", "locationType": "SupermarktPuP", "collectionPoint": true, "sapStoreID": "3452", "todayClose": "20:00", "location": {"type": "Point", "coordinates": [6.648551, 52.101557]}}, {"city": "Eindhoven", "postalCode": "5628 XJ", "street": "Belgi\u00ebplein", "street2": "21", "street3": "", "addressName": "Jumbo Eindhoven Belgi\u00ebplein", "uuid": "KBkKYx4XSfoAAAFIf2AYwKxK", "complexNumber": "32033", "showWarningMessage": true, "todayOpen": "08:00", "locationType": "SupermarktPuP", "collectionPoint": true, "sapStoreID": "4859", "todayClose": "21:00", "location": {"type": "Point", "coordinates": [5.478941, 51.479727]}}, {"city": "Eindhoven", "postalCode": "5627 LE", "street": "Biarritzplein", "street2": "37", "street3": "", "addressName": "Jumbo Eindhoven Biarritzplein", "uuid": "W58KYx4X7asAAAFIUSwYwKxK", "complexNumber": "30242", "showWarningMessage": true, "todayOpen": "08:00", "locationType": "Supermarkt", "sapStoreID": "4611", "todayClose": "21:00", "location": {"type": "Point", "coordinates": [5.44934, 51.482902]}}, {"city": "Eindhoven", "postalCode": "5612 HD", "street": "Boschdijk", "street2": "289", "street3": "", "addressName": "Jumbo Eindhoven Boschdijk", "uuid": "4oMKYx4Xt9oAAAFImNEYwKxK", "complexNumber": "32176", "showWarningMessage": true, "todayOpen": "08:00", "locationType": "SupermarktPuP", "collectionPoint": true, "sapStoreID": "7008", "todayClose": "22:00", "location": {"type": "Point", "coordinates": [5.464946, 51.451005]}}, {"city": "Eindhoven", "postalCode": "5615 KT", "street": "Boutenslaan", "street2": "56", "street3": "", "addressName": "Jumbo Eindhoven Boutenslaan", "uuid": "NKkKYx4Xgo8AAAFIhH8YwKxK", "complexNumber": "32170", "showWarningMessage": true, "todayOpen": "08:00", "locationType": "SupermarktPuP", "collectionPoint": true, "sapStoreID": "4943", "todayClose": "22:00", "location": {"type": "Point", "coordinates": [5.465047, 51.427559]}}, {"city": "Eindhoven", "postalCode": "5611 SE", "street": "Geldropseweg", "street2": "103", "street3": "", "addressName": "Jumbo Eindhoven Geldropseweg", "uuid": "WW8KYx4XcYwAAAFIay4YwKxK", "complexNumber": "31394", "showWarningMessage": true, "todayOpen": "08:00", "locationType": "Supermarkt", "sapStoreID": "4614", "todayClose": "22:00", "location": {"type": "Point", "coordinates": [5.490035, 51.433142]}}, {"city": "Eindhoven", "postalCode": "5624 JP", "street": "Gerretsonplein", "street2": "67", "street3": "", "addressName": "Jumbo Eindhoven Gerretsonplein", "uuid": "_XMKYx4XNGEAAAFIpUsYwKxK", "complexNumber": "32211", "showWarningMessage": true, "todayOpen": "08:00", "locationType": "Supermarkt", "sapStoreID": "4702", "todayClose": "21:00", "location": {"type": "Point", "coordinates": [5.463269, 51.470731]}}, {"city": "Eindhoven", "postalCode": "5653 LR", "street": "Kastelenplein", "street2": "86", "street3": "", "addressName": "Jumbo Eindhoven Kastelenplein", "uuid": "nfEKYx4Xe1wAAAFUw3YHNV9e", "complexNumber": "33077", "showWarningMessage": true, "todayOpen": "08:00", "locationType": "Supermarkt", "sapStoreID": "3172", "todayClose": "21:00", "location": {"type": "Point", "coordinates": [5.440903, 51.419103]}}, {"city": "Eindhoven", "postalCode": "5658 LM", "street": "Meerwater", "street2": "8", "street3": "", "addressName": "Jumbo Eindhoven Meerwater", "uuid": "4iYKYx4XaNUAAAFIfXkYwKxK", "complexNumber": "32180", "showWarningMessage": true, "todayOpen": "08:30", "locationType": "Supermarkt", "sapStoreID": "4927", "todayClose": "20:00", "location": {"type": "Point", "coordinates": [5.408455, 51.442225]}}, {"city": "Eindhoven", "postalCode": "5628 AJ", "street": "Nederlandplein", "street2": "103", "street3": "", "addressName": "Jumbo Eindhoven Nederlandplein", "uuid": "8bwKYx4Xrw4AAAFIWdQYwKxJ", "complexNumber": "33079", "showWarningMessage": true, "todayOpen": "08:00", "locationType": "Supermarkt", "sapStoreID": "3126", "todayClose": "21:00", "location": {"type": "Point", "coordinates": [5.46338, 51.479272]}}, {"city": "Eindhoven", "postalCode": "5641 CB", "street": "Pagelaan", "street2": "9", "street3": "", "addressName": "Jumbo Eindhoven Pagelaan", "uuid": "3HEKYx4XnGMAAAFIkksYwKxK", "complexNumber": "31397", "showWarningMessage": true, "todayOpen": "08:00", "locationType": "SupermarktPuP", "collectionPoint": true, "sapStoreID": "4699", "todayClose": "21:00", "location": {"type": "Point", "coordinates": [5.517419, 51.452017]}}, {"city": "Eindhoven", "postalCode": "5625 AA", "street": "Winkelcentrum Woensel", "street2": "1", "street3": "", "addressName": "Jumbo Eindhoven WC Woensel", "uuid": "xIoKYx4XBgEAAAFJKwoYZ4CR", "complexNumber": "33527", "showWarningMessage": true, "todayOpen": "08:00", "locationType": "Supermarkt", "sapStoreID": "3127", "todayClose": "22:00", "location": {"type": "Point", "coordinates": [5.477477, 51.46822]}}, {"city": "Elburg", "postalCode": "8081 CG", "street": "Zwolscheweg", "street2": "1", "street3": "", "addressName": "Jumbo Elburg Zwolscheweg", "uuid": "Z7AKYx4XtVgAAAFICj4YwKxK", "complexNumber": "31399", "showWarningMessage": true, "todayOpen": "08:00", "locationType": "Supermarkt", "sapStoreID": "4662", "todayClose": "20:00", "location": {"type": "Point", "coordinates": [5.837842, 52.447553]}}, {"city": "Elst", "postalCode": "6662 DD", "street": "Europaplein", "street2": "22", "street3": "", "addressName": "Jumbo Elst Europaplein", "uuid": "WFMKYx4X_fIAAAFJfoQFS1eI", "complexNumber": "33528", "showWarningMessage": true, "todayOpen": "08:00", "locationType": "SupermarktPuP", "collectionPoint": true, "sapStoreID": "3455", "todayClose": "20:00", "location": {"type": "Point", "coordinates": [5.842928, 51.917456]}}, {"city": "Elst", "postalCode": "6661 TT", "street": "Basilica", "street2": "19", "street3": "", "addressName": "Jumbo Elst Macleane Westeraam", "uuid": "6KUKYx4XxpMAAAFIfOwYwKxJ", "complexNumber": "33082", "showWarningMessage": true, "todayOpen": "08:00", "locationType": "Supermarkt", "sapStoreID": "3454", "todayClose": "20:00", "location": {"type": "Point", "coordinates": [5.86126, 51.922134]}}, {"city": "Emmeloord", "postalCode": "8302 EB", "street": "Lange Nering", "street2": "83", "street3": "", "addressName": "Jumbo Emmeloord Lange Nering", "uuid": "kLcKYx4XAakAAAFIHk4YwKxK", "complexNumber": "32150", "showWarningMessage": true, "todayOpen": "08:00", "locationType": "Supermarkt", "sapStoreID": "4803", "todayClose": "22:00", "location": {"type": "Point", "coordinates": [5.758072, 52.711821]}}, {"city": "Emmeloord", "postalCode": "8303 GH", "street": "Europalaan", "street2": "33", "street3": "", "addressName": "Jumbo Emmeloord Odink", "uuid": "BvgKYx4XunkAAAFJ1wsYZ4CR", "complexNumber": "33529", "showWarningMessage": true, "todayOpen": "08:00", "locationType": "SupermarktPuP", "collectionPoint": true, "sapStoreID": "3456", "todayClose": "22:00", "location": {"type": "Point", "coordinates": [5.739695, 52.711511]}}, {"city": "Emmen", "postalCode": "7823 PV", "street": "Houtweg", "street2": "296", "street3": "", "addressName": "Jumbo Emmen Houtweg", "uuid": "ox0KYx4XqEYAAAFImLwYwKxJ", "complexNumber": "33264", "showWarningMessage": true, "todayOpen": "08:00", "locationType": "Supermarkt", "sapStoreID": "3021", "todayClose": "20:00", "location": {"type": "Point", "coordinates": [6.93904, 52.792601]}}, {"city": "Emmen", "postalCode": "7824 CS", "street": "Statenweg", "street2": "33", "street3": "", "addressName": "Jumbo Emmen Statenweg", "uuid": "cV8KYx4XnKYAAAFIzckYwKxJ", "complexNumber": "33084", "showWarningMessage": true, "todayOpen": "08:00", "locationType": "Supermarkt", "sapStoreID": "3092", "todayClose": "20:00", "location": {"type": "Point", "coordinates": [6.923236, 52.779773]}}, {"city": "Emmen", "postalCode": "7827 HC", "street": "Valkenveld", "street2": "50", "street3": "", "addressName": "Jumbo Emmen Valkenveld", "uuid": "AEQKYx4X4cUAAAFIVS0YwKrH", "complexNumber": "30046", "showWarningMessage": true, "todayOpen": "08:00", "locationType": "Supermarkt", "sapStoreID": "4686", "todayClose": "22:00", "location": {"type": "Point", "coordinates": [6.889522, 52.750653]}}, {"city": "Emmen", "postalCode": "7811 CE", "street": "Weerdingerstraat", "street2": "232B", "street3": "", "addressName": "Jumbo Emmen Weerdingerstraat", "uuid": "XhwKYx4X8yMAAAFIuUYYwKxK", "complexNumber": "30832", "showWarningMessage": true, "todayOpen": "08:00", "locationType": "SupermarktPuP", "collectionPoint": true, "sapStoreID": "4687", "todayClose": "20:00", "location": {"type": "Point", "coordinates": [6.898426, 52.791939]}}, {"city": "Emmen", "postalCode": "7811 JA", "street": "Wilhelminastraat", "street2": "7", "street3": "", "addressName": "Jumbo Emmen Wilhelminastraat", "uuid": "ZmEKYx4X5JwAAAFIjzQYwKxK", "complexNumber": "30188", "showWarningMessage": true, "todayOpen": "08:00", "locationType": "Supermarkt", "sapStoreID": "4632", "todayClose": "20:00", "location": {"type": "Point", "coordinates": [6.896808, 52.778127]}}, {"city": "Enschede", "postalCode": "7523 MA", "street": "Brouwerijplein", "street2": "55", "street3": "", "addressName": "Jumbo Enschede Brouwerijplein", "uuid": "ROAKYx4XCHsAAAFISzIYwKxK", "complexNumber": "32001", "showWarningMessage": true, "todayOpen": "08:00", "locationType": "SupermarktPuP", "collectionPoint": true, "sapStoreID": "4621", "todayClose": "21:00", "location": {"type": "Point", "coordinates": [6.891671, 52.231521]}}, {"city": "Enschede", "postalCode": "7543 AB", "street": "Burgemeester van Veenlaan", "street2": "100", "street3": "", "addressName": "Jumbo Enschede Burgemeester van Veenlaan", "uuid": "TLwKYx4Xfl8AAAFXhF90knNL", "complexNumber": "33581", "showWarningMessage": true, "todayOpen": "08:00", "locationType": "SupermarktPuP", "collectionPoint": true, "sapStoreID": "3175", "todayClose": "21:00", "location": {"type": "Point", "coordinates": [6.878991, 52.206207]}}, {"city": "Enschede", "postalCode": "7511 EK", "street": "Noorderhagen", "street2": "75", "street3": "", "addressName": "Jumbo Enschede Irene Promenade", "uuid": "svYKYx4XuSUAAAFIoVUYwKxK", "complexNumber": "32034", "showWarningMessage": true, "todayOpen": "08:00", "locationType": "Supermarkt", "sapStoreID": "4823", "todayClose": "21:00", "location": {"type": "Point", "coordinates": [6.898243, 52.22135]}}, {"city": "Enschede", "postalCode": "7544 JB", "street": "Wesselernering", "street2": "21", "street3": "", "addressName": "Jumbo Enschede Wesselernering", "uuid": "fYsKYx4X3d8AAAFKRpNPW5Zz", "complexNumber": "33086", "showWarningMessage": true, "todayOpen": "08:00", "locationType": "SupermarktPuP", "collectionPoint": true, "sapStoreID": "3141", "todayClose": "21:00", "location": {"type": "Point", "coordinates": [6.880051, 52.191539]}}, {"city": "Epe", "postalCode": "8161 HN", "street": "Gruttersplein", "street2": "15", "street3": "", "addressName": "Jumbo Epe Jumbo van Andel", "uuid": "x4UKYx4XcGUAAAFLUNAai3Gk", "complexNumber": "33087", "showWarningMessage": true, "todayOpen": "08:00", "locationType": "SupermarktPuP", "collectionPoint": true, "sapStoreID": "3529", "todayClose": "20:00", "location": {"type": "Point", "coordinates": [5.984636, 52.346144]}}, {"city": "Etten-Leur", "postalCode": "4871 CK", "street": "Geerkade", "street2": "9", "street3": "", "addressName": "Jumbo Etten-Leur Geerkade", "uuid": "zm8KYx4XtOgAAAFI6o0YwKxK", "complexNumber": "31582", "showWarningMessage": true, "todayOpen": "07:30", "locationType": "SupermarktPuP", "collectionPoint": true, "sapStoreID": "6361", "todayClose": "22:00", "location": {"type": "Point", "coordinates": [4.654339, 51.586719]}}, {"city": "Etten-Leur", "postalCode": "4873 CE", "street": "Kerkwerve", "street2": "25", "street3": "", "addressName": "Jumbo Etten-Leur Kerkwerve", "uuid": "yo4KYx4X.JIAAAFMU10hgZb4", "complexNumber": "33088", "showWarningMessage": true, "todayOpen": "07:30", "locationType": "SupermarktPuP", "collectionPoint": true, "sapStoreID": "3458", "todayClose": "22:00", "location": {"type": "Point", "coordinates": [4.642907, 51.565013]}}, {"city": "Eygelshoven", "postalCode": "6471 EX", "street": "Portbeemden", "street2": "1", "street3": "", "addressName": "Jumbo Eygelshoven Portbeemden", "uuid": "A.oKYx4X5CEAAAFIaM8YwKxJ", "complexNumber": "33089", "showWarningMessage": true, "todayOpen": "08:00", "locationType": "Supermarkt", "sapStoreID": "3113", "todayClose": "21:00", "location": {"type": "Point", "coordinates": [6.060411, 50.894142]}}, {"city": "Fijnaart", "postalCode": "4793 RR", "street": "Kadedijk", "street2": "120", "street3": "", "addressName": "Jumbo Fijnaart Gert Driesen", "uuid": "QbIKYx4XE5oAAAFIZOwYwKxJ", "complexNumber": "33091", "showWarningMessage": true, "todayOpen": "08:00", "locationType": "SupermarktPuP", "collectionPoint": true, "sapStoreID": "3459", "todayClose": "20:00", "location": {"type": "Point", "coordinates": [4.474125, 51.631861]}}, {"city": "Gameren", "postalCode": "5311 PC", "street": "Middelkampseweg", "street2": "6", "street3": "", "addressName": "Jumbo Gameren Jumbo Bommelerwaard", "uuid": "e7QKYx4XGI0AAAFIDcQYwKxK", "complexNumber": "32014", "showWarningMessage": true, "todayOpen": "08:00", "locationType": "SupermarktPuP", "collectionPoint": true, "sapStoreID": "6527", "todayClose": "21:00", "location": {"type": "Point", "coordinates": [5.20456, 51.797435]}}, {"city": "Geffen", "postalCode": "5386 BD", "street": "Aloysiusplein", "street2": "1", "street3": "", "addressName": "Jumbo Geffen Jumbo van der Sangen", "uuid": "VI8KYx4XMD8AAAFPnF0HXKrl", "complexNumber": "33277", "showWarningMessage": true, "todayOpen": "08:00", "locationType": "SupermarktPuP", "collectionPoint": true, "sapStoreID": "3739", "todayClose": "20:00", "location": {"type": "Point", "coordinates": [5.462339, 51.741324]}}, {"city": "Geldrop", "postalCode": "5665 GA", "street": "Coevering", "street2": "5", "street3": "", "addressName": "Jumbo Geldrop Verhagen Coevering", "uuid": "DP0KYx4XWNEAAAFVAtI0qXV1", "complexNumber": "32035", "showWarningMessage": true, "todayOpen": "08:00", "locationType": "Supermarkt", "sapStoreID": "7066", "todayClose": "21:00", "location": {"type": "Point", "coordinates": [5.573509, 51.417019]}}, {"city": "Geleen", "postalCode": "6166 CV", "street": "Pastoor Vonckenstraat", "street2": "9", "street3": "", "addressName": "Jumbo Geleen Pastoor Vonckenstraat", "uuid": "b3QKYx4XQDYAAAFIrZUYwKxK", "complexNumber": "31556", "showWarningMessage": true, "todayOpen": "08:00", "locationType": "SupermarktPuP", "collectionPoint": true, "sapStoreID": "6377", "todayClose": "20:00", "location": {"type": "Point", "coordinates": [5.840834, 50.97111]}}, {"city": "Geleen", "postalCode": "6163 CG", "street": "Bloemenmarkt", "street2": "32", "street3": "", "addressName": "Jumbo Geleen Penders", "uuid": "lEkKYx4X78oAAAFIHBcYwKxK", "complexNumber": "33530", "showWarningMessage": true, "todayOpen": "08:00", "locationType": "SupermarktPuP", "collectionPoint": true, "sapStoreID": "3656", "todayClose": "20:00", "location": {"type": "Point", "coordinates": [5.814687, 50.984474]}}, {"city": "Gemert", "postalCode": "5421 PL", "street": "Past.Poellplein", "street2": "9", "street3": "", "addressName": "Jumbo Gemert Past.Poellplein", "uuid": "E2MKYx4X1rEAAAFIgGEYwKxK", "complexNumber": "32036", "showWarningMessage": true, "todayOpen": "08:00", "locationType": "SupermarktPuP", "collectionPoint": true, "sapStoreID": "4860", "todayClose": "21:00", "location": {"type": "Point", "coordinates": [5.686091, 51.561268]}}, {"city": "Gennep", "postalCode": "6591 AV", "street": "Europaplein", "street2": "1-9", "street3": "", "addressName": "Jumbo Gennep Europaplein", "uuid": "ifUKYx4XJ9sAAAFI7TgYwKxK", "complexNumber": "32143", "showWarningMessage": true, "todayOpen": "08:00", "locationType": "Supermarkt", "sapStoreID": "4651", "todayClose": "20:00", "location": {"type": "Point", "coordinates": [5.97016, 51.698053]}}, {"city": "Gieten", "postalCode": "9461 GR", "street": "Stationsstraat", "street2": "37", "street3": "", "addressName": "Jumbo Gieten Jumbo Abbas", "uuid": "tpQKYx4XUWQAAAFLRdAai3Gk", "complexNumber": "33096", "showWarningMessage": true, "todayOpen": "08:00", "locationType": "SupermarktPuP", "collectionPoint": true, "sapStoreID": "3524", "todayClose": "20:00", "location": {"type": "Point", "coordinates": [6.764721, 53.002018]}}, {"city": "Gilze", "postalCode": "5126 CC", "street": "Niewstraat", "street2": "109", "street3": "", "addressName": "Jumbo Gilze Hapers Gilze", "uuid": "AfIKYx4X.y8AAAFJOAoYZ4CR", "complexNumber": "33244", "showWarningMessage": true, "todayOpen": "08:00", "locationType": "SupermarktPuP", "collectionPoint": true, "sapStoreID": "3592", "todayClose": "20:00", "location": {"type": "Point", "coordinates": [4.941983, 51.548479]}}, {"city": "Glanerbrug", "postalCode": "7534 CC", "street": "Schoolstraat", "street2": "60", "street3": "", "addressName": "Jumbo Glanerbrug Lochan", "uuid": "pdUKYx4X28UAAAFIIOEYwKxJ", "complexNumber": "33097", "showWarningMessage": true, "todayOpen": "08:00", "locationType": "SupermarktPuP", "collectionPoint": true, "sapStoreID": "3418", "todayClose": "21:00", "location": {"type": "Point", "coordinates": [6.970179, 52.212865]}}, {"city": "Goes", "postalCode": "4461 HH", "street": "Marconistraat", "street2": "1-2", "street3": "", "addressName": "Jumbo Goes Marconistraat", "uuid": "U68KYx4XpZAAAAFIFmIYwKxK", "complexNumber": "32037", "showWarningMessage": true, "todayOpen": "08:00", "locationType": "SupermarktPuP", "collectionPoint": true, "sapStoreID": "4861", "todayClose": "21:00", "location": {"type": "Point", "coordinates": [3.885063, 51.499215]}}, {"city": "Goor", "postalCode": "7471 DP", "street": "van Kollaan", "street2": "7", "street3": "", "addressName": "Jumbo Goor Leussink", "uuid": "40UKYx4XyxQAAAFIF8EYwKxK", "complexNumber": "32038", "showWarningMessage": true, "todayOpen": "08:00", "locationType": "Supermarkt", "sapStoreID": "6519", "todayClose": "21:00", "location": {"type": "Point", "coordinates": [6.578758, 52.23423]}}, {"city": "Gorinchem", "postalCode": "4204 BP", "street": "Piazza Center", "street2": "22-30", "street3": "", "addressName": "Jumbo Gorinchem Piazza Center", "uuid": "6JoKYx4XwOsAAAFIW4UYwKxK", "complexNumber": "30384", "showWarningMessage": true, "todayOpen": "08:00", "locationType": "Supermarkt", "sapStoreID": "6336", "todayClose": "20:00", "location": {"type": "Point", "coordinates": [4.96115, 51.8379]}}, {"city": "Gorredijk", "postalCode": "8401 BL", "street": "Badweg", "street2": "34", "street3": "", "addressName": "Jumbo Gorredijk Badweg", "uuid": "ZhAKYx4XaVQAAAFcyDlerHrB", "complexNumber": "33098", "showWarningMessage": true, "todayOpen": "08:00", "locationType": "SupermarktPuP", "collectionPoint": true, "sapStoreID": "3181", "todayClose": "21:00", "location": {"type": "Point", "coordinates": [6.056909, 53.003553]}}, {"city": "Gorssel", "postalCode": "7213 DB", "street": "Nijverheidsstraat", "street2": "22", "street3": "", "addressName": "Jumbo Gorssel Brinkman", "uuid": "6RMKYx4XHr0AAAFI3aUYwKxK", "complexNumber": "31564", "showWarningMessage": true, "todayOpen": "08:00", "locationType": "SupermarktPuP", "collectionPoint": true, "sapStoreID": "6437", "todayClose": "20:00", "location": {"type": "Point", "coordinates": [6.202666, 52.20217]}}, {"city": "Gouda", "postalCode": "2804 VT", "street": "Ruigenburg", "street2": "2", "street3": "", "addressName": "Jumbo Gouda Bloemendaal", "uuid": "LI8KYx4XvSEAAAFIg2UYwKrH", "complexNumber": "30557", "showWarningMessage": true, "todayOpen": "08:00", "locationType": "SupermarktPuP", "collectionPoint": true, "sapStoreID": "6330", "todayClose": "20:00", "location": {"type": "Point", "coordinates": [4.70337, 52.032288]}}, {"city": "Gouda", "postalCode": "2806 HC", "street": "Sportlaan", "street2": "4a", "street3": "", "addressName": "Jumbo Gouda Sportlaan", "uuid": "T2gKYx4XESQAAAFXfaUpiSDl", "complexNumber": "33586", "showWarningMessage": true, "todayOpen": "08:00", "locationType": "Supermarkt", "sapStoreID": "4722", "todayClose": "20:00", "location": {"type": "Point", "coordinates": [4.73003, 52.010371]}}, {"city": "Grave", "postalCode": "5361 JT", "street": "Essinklaan", "street2": "72", "street3": "", "addressName": "Jumbo Grave Essinklaan", "uuid": "mw8KYx4XoFUAAAFIKsQYwKxK", "complexNumber": "32039", "showWarningMessage": true, "todayOpen": "08:00", "locationType": "SupermarktPuP", "collectionPoint": true, "sapStoreID": "6529", "todayClose": "20:00", "location": {"type": "Point", "coordinates": [5.746917, 51.75166]}}, {"city": "Grijpskerk", "postalCode": "9843 BD", "street": "Schoutstraat", "street2": "5", "street3": "", "addressName": "Jumbo Grijpskerk Schoutstraat", "uuid": "SfgKYx4XtRgAAAFJ1goYZ4CR", "complexNumber": "33533", "showWarningMessage": true, "todayOpen": "08:00", "locationType": "SupermarktPuP", "collectionPoint": true, "sapStoreID": "3526", "todayClose": "20:00", "location": {"type": "Point", "coordinates": [6.307238, 53.26326]}}, {"city": "Groesbeek", "postalCode": "6562 CZ", "street": "De Meent", "street2": "1", "street3": "", "addressName": "Jumbo Groesbeek De Meent", "uuid": "e74KYx4XXIAAAAFIqz4YwKxK", "complexNumber": "30252", "showWarningMessage": true, "todayOpen": "08:00", "locationType": "SupermarktPuP", "collectionPoint": true, "sapStoreID": "4665", "todayClose": "20:00", "location": {"type": "Point", "coordinates": [5.933827, 51.772985]}}, {"city": "Groningen", "postalCode": "9714 DW", "street": "Beren", "street2": "85", "street3": "", "addressName": "Jumbo Groningen Beren", "uuid": "P5YKYx4Xo9oAAAFI_LwYwKxK", "complexNumber": "32040", "showWarningMessage": true, "todayOpen": "08:00", "locationType": "Supermarkt", "sapStoreID": "6506", "todayClose": "22:00", "location": {"type": "Point", "coordinates": [6.562667, 53.226915]}}, {"city": "Groningen", "postalCode": "9723 ZS", "street": "Boumaboulevard", "street2": "525", "street3": "", "addressName": "Jumbo Groningen Euroborg", "uuid": "4UIKYx4XzHsAAAFInrwYwKxK", "complexNumber": "32041", "showWarningMessage": true, "todayOpen": "08:00", "locationType": "SupermarktPuP", "collectionPoint": true, "sapStoreID": "6504", "todayClose": "22:00", "location": {"type": "Point", "coordinates": [6.591977, 53.207145]}}, {"city": "Groningen", "postalCode": "9712 HJ", "street": "Oude Ebbingestraat", "street2": "18a", "street3": "", "addressName": "Jumbo Groningen Foodmarkt City", "uuid": "wfoKYx4X8M0AAAFbTipnB6J2", "complexNumber": "32264", "showWarningMessage": true, "todayOpen": "08:00", "locationType": "Supermarkt", "sapStoreID": "8509", "todayClose": "22:00", "location": {"type": "Point", "coordinates": [6.567, 53.219357]}}, {"city": "Groningen", "postalCode": "9713 GP", "street": "Linnaeusplein", "street2": "55", "street3": "", "addressName": "Jumbo Groningen Oosterpark", "uuid": "yVUKYx4Xv0AAAAFIsxgYwKxK", "complexNumber": "33099", "showWarningMessage": true, "todayOpen": "08:00", "locationType": "Supermarkt", "sapStoreID": "3658", "todayClose": "21:00", "location": {"type": "Point", "coordinates": [6.582396, 53.222301]}}, {"city": "Groningen", "postalCode": "9711 NX", "street": "Oosterstraat", "street2": "58", "street3": "", "addressName": "Jumbo Groningen Oosterstraat", "uuid": "C.UKYx4XQgcAAAFJ76AFS1eI", "complexNumber": "32217", "showWarningMessage": true, "todayOpen": "08:00", "locationType": "Supermarkt", "sapStoreID": "7042", "todayClose": "22:00", "location": {"type": "Point", "coordinates": [6.570859, 53.216437]}}, {"city": "Groningen", "postalCode": "9728 GP", "street": "Overwinningsplein", "street2": "7", "street3": "", "addressName": "Jumbo Groningen Overwinningsplein", "uuid": "YxgKYx4Xxj8AAAFMXukhgUnv", "complexNumber": "33100", "showWarningMessage": true, "todayOpen": "08:00", "locationType": "Supermarkt", "sapStoreID": "3659", "todayClose": "21:00", "location": {"type": "Point", "coordinates": [6.561594, 53.198044]}}, {"city": "Groningen", "postalCode": "9746 RE", "street": "Reitdiephaven", "street2": "261", "street3": "", "addressName": "Jumbo Groningen Reitdiephaven", "uuid": "RL8KYx4XICcAAAFIAM8YwKxK", "complexNumber": "32136", "showWarningMessage": true, "todayOpen": "08:00", "locationType": "SupermarktPuP", "collectionPoint": true, "sapStoreID": "6594", "todayClose": "21:00", "location": {"type": "Point", "coordinates": [6.522026, 53.236004]}}, {"city": "Groningen", "postalCode": "9717 AB", "street": "Wilhelminakade", "street2": "21", "street3": "", "addressName": "Jumbo Groningen Wilhelminakade", "uuid": "B7gKYx4XsksAAAFIzK0YwKxK", "complexNumber": "30176", "showWarningMessage": true, "todayOpen": "08:00", "locationType": "Supermarkt", "sapStoreID": "6458", "todayClose": "21:00", "location": {"type": "Point", "coordinates": [6.547277, 53.219487]}}, {"city": "Grou", "postalCode": "9001 EH", "street": "Stationsweg", "street2": "38F", "street3": "", "addressName": "Jumbo Grou Stationsweg", "uuid": "r1cKYx4XC3EAAAFI.6wYwKxK", "complexNumber": "31520", "showWarningMessage": true, "todayOpen": "08:30", "locationType": "SupermarktPuP", "collectionPoint": true, "sapStoreID": "6457", "todayClose": "20:00", "location": {"type": "Point", "coordinates": [5.830876, 53.094319]}}, {"city": "Haaksbergen", "postalCode": "7481 JA", "street": "Stationsstraat", "street2": "12", "street3": "", "addressName": "Jumbo Haaksbergen Leussink", "uuid": "8xkKYx4XBawAAAFIQsEYwKxK", "complexNumber": "32042", "showWarningMessage": true, "todayOpen": "09:00", "locationType": "SupermarktPuP", "collectionPoint": true, "sapStoreID": "6520", "todayClose": "21:00", "location": {"type": "Point", "coordinates": [6.737974, 52.157674]}}, {"city": "Haarlem", "postalCode": "2036 RS", "street": "Engelenburg", "street2": "70", "street3": "", "addressName": "Jumbo Haarlem Engelenburg", "uuid": "j3oKYx4XsQ8AAAFI.eAYwKxJ", "complexNumber": "33101", "showWarningMessage": true, "todayOpen": "07:00", "locationType": "Supermarkt", "sapStoreID": "3415", "todayClose": "22:00", "location": {"type": "Point", "coordinates": [4.653853, 52.351871]}}, {"city": "Hank", "postalCode": "4273 CA", "street": "Kerkstraat", "street2": "43", "street3": "", "addressName": "Jumbo Hank Kerkstraat", "uuid": "rPwKYx4XcEIAAAFI5a8YwKxK", "complexNumber": "30568", "showWarningMessage": true, "todayOpen": "08:00", "locationType": "SupermarktPuP", "collectionPoint": true, "sapStoreID": "6466", "todayClose": "20:00", "location": {"type": "Point", "coordinates": [4.899847, 51.73602]}}, {"city": "Hapert", "postalCode": "5527 EN", "street": "Markt", "street2": "26", "street3": "", "addressName": "Jumbo Hapert Markt", "uuid": "w6AKYx4Xwz8AAAFI0dsYwKxJ", "complexNumber": "33502", "showWarningMessage": true, "todayOpen": "08:00", "locationType": "SupermarktPuP", "collectionPoint": true, "sapStoreID": "3406", "todayClose": "20:00", "location": {"type": "Point", "coordinates": [5.251834, 51.369247]}}, {"city": "Hardenberg", "postalCode": "7772 BV", "street": "Adm Helfrichstraat", "street2": "1", "street3": "", "addressName": "Jumbo Hardenberg Adm Helfrichstraat", "uuid": "SHQKYx4X9.AAAAFIZ_gYwKWf", "complexNumber": "30006", "showWarningMessage": true, "todayOpen": "08:00", "locationType": "SupermarktPuP", "collectionPoint": true, "sapStoreID": "4683", "todayClose": "21:00", "location": {"type": "Point", "coordinates": [6.620719, 52.574053]}}, {"city": "Harderwijk", "postalCode": "3845 GD", "street": "Triasplein", "street2": "83", "street3": "", "addressName": "Jumbo Harderwijk Drielanden", "uuid": "3u0KYx4XlCAAAAFJ3QsYZ4CR", "complexNumber": "33102", "showWarningMessage": true, "todayOpen": "08:00", "locationType": "SupermarktPuP", "collectionPoint": true, "sapStoreID": "3716", "todayClose": "21:00", "location": {"type": "Point", "coordinates": [5.601576, 52.324772]}}, {"city": "Harderwijk", "postalCode": "3843 DC", "street": "Nassaulaan", "street2": "10", "street3": "", "addressName": "Jumbo Harderwijk Nassaulaan", "uuid": "kNEKYx4XtMQAAAFIL6YYwKxK", "complexNumber": "30285", "showWarningMessage": true, "todayOpen": "08:00", "locationType": "SupermarktPuP", "collectionPoint": true, "sapStoreID": "6438", "todayClose": "20:00", "location": {"type": "Point", "coordinates": [5.633571, 52.335639]}}, {"city": "Harderwijk", "postalCode": "3844 HR", "street": "Achterste Wei", "street2": "3", "street3": "", "addressName": "Jumbo Harderwijk Stadsweiden", "uuid": "XNsKYx4XolwAAAFN9CQ7frI2", "complexNumber": "33535", "showWarningMessage": true, "todayOpen": "08:00", "locationType": "SupermarktPuP", "collectionPoint": true, "sapStoreID": "3738", "todayClose": "21:00", "location": {"type": "Point", "coordinates": [5.608147, 52.336666]}}, {"city": "Haren", "postalCode": "9751 AN", "street": "Anjerplein", "street2": "31", "street3": "", "addressName": "Jumbo Haren Anjerplein", "uuid": "kcAKYx4X6nkAAAFZm1UnMIXx", "complexNumber": "33280", "showWarningMessage": true, "todayOpen": "08:00", "locationType": "SupermarktPuP", "collectionPoint": true, "sapStoreID": "3744", "todayClose": "21:00", "location": {"type": "Point", "coordinates": [6.623632, 53.170992]}}, {"city": "Haren", "postalCode": "9752 KH", "street": "Kroonkampweg", "street2": "10", "street3": "", "addressName": "Jumbo Haren Kroonkampweg", "uuid": "KpEKYx4X9lcAAAFIcQIYwKxK", "complexNumber": "33505", "showWarningMessage": true, "todayOpen": "08:00", "locationType": "Supermarkt", "sapStoreID": "3523", "todayClose": "21:00", "location": {"type": "Point", "coordinates": [6.603423, 53.171885]}}, {"city": "Harlingen", "postalCode": "8861 XX", "street": "Spoorstraat", "street2": "1", "street3": "", "addressName": "Jumbo Harlingen Spoorstraat", "uuid": "VeMKYx4XFmMAAAFNF907fryC", "complexNumber": "31458", "showWarningMessage": true, "todayOpen": "08:00", "locationType": "SupermarktPuP", "collectionPoint": true, "sapStoreID": "6461", "todayClose": "21:00", "location": {"type": "Point", "coordinates": [5.420315, 53.170788]}}, {"city": "Hazerswoude Rijndijk", "postalCode": "2394 BL", "street": "Da Costasingel", "street2": "34-36", "street3": "", "addressName": "Jumbo Hazerswoude Rijndijk Da Costasingel", "uuid": "r64KYx4XpSQAAAFIfjsYwKxK", "complexNumber": "30194", "showWarningMessage": true, "todayOpen": "08:00", "locationType": "Supermarkt", "sapStoreID": "4657", "todayClose": "20:00", "location": {"type": "Point", "coordinates": [4.588355, 52.127781]}},